{"type":"FeatureCollection","features":[{"type":"Feature","geometry":{"type":"Point","coordinates":[5.6262918,58.7793134]},"properties":{"name":"Coop Ekspress Kleppe","address":"Solavegen 25, 4351 Kleppe","chain":"mega","samvirkelag":"COOP KLEPP SA","source":"https://www.coop.no/butikker/coop-mega/coop-ekspress-kleppe-2644"}},{"type":"Feature","geometry":{"type":"Point","coordinates":[10.72531017,59.91023341]},"properties":{"name":"Coop Mega Aker Brygge","address":"Holmens gate 7, 0250 Oslo","chain":"mega","samvirkelag":"NORSK BUTIKKDRIFT AS","source":"https://www.coop.no/butikker/coop-mega/coop-mega-aker-brygge-4559"}},{"type":"Feature","geometry":{"type":"Point","coordinates":[10.7500566,59.9282972]},"properties":{"name":"Coop Mega Alexander Kiellandsp","address":"Waldemar Thranes gate 72, 0175 Oslo","chain":"mega","samvirkelag":"NORSK BUTIKKDRIFT AS","source":"https://www.coop.no/butikker/coop-mega/coop-mega-alexander-kiellandsp-4773"}},{"type":"Feature","geometry":{"type":"Point","coordinates":[8.7509024,58.4591362]},"properties":{"name":"Coop Mega Arendal","address":"Strømsbusletta 9, 4847 Arendal","chain":"mega","samvirkelag":"COOP SØRVEST SA","source":"https://www.coop.no/butikker/coop-mega/coop-mega-arendal-2621"}},{"type":"Feature","geometry":{"type":"Point","coordinates":[7.1392247,62.7396377]},"properties":{"name":"Coop Mega Bekkevoll","address":"Moldelivegen 97, 6412 Molde","chain":"mega","samvirkelag":"NORSK BUTIKKDRIFT AS","source":"https://www.coop.no/butikker/coop-mega/coop-mega-bekkevoll-4372"}},{"type":"Feature","geometry":{"type":"Point","coordinates":[9.6489423,59.6721]},"properties":{"name":"Coop Mega Berjasenteret","address":"Herman Foss gate 12, 3611 Kongsberg","chain":"mega","samvirkelag":"NORSK BUTIKKDRIFT AS","source":"https://www.coop.no/butikker/coop-mega/coop-mega-berjasenteret-4301"}},{"type":"Feature","geometry":{"type":"Point","coordinates":[10.7329,59.9231]},"properties":{"name":"Coop Mega Bislett","address":"Dalsbergstien 19, 0170 Oslo","chain":"mega","samvirkelag":"COOP ØST SA","source":"https://www.coop.no/butikker/coop-mega/coop-mega-bislett-2704"}},{"type":"Feature","geometry":{"type":"Point","coordinates":[5.7319456,58.8453638]},"properties":{"name":"Coop Mega Brueland","address":"Ganddalsgata 1, 4306 Sandnes","chain":"mega","samvirkelag":"COOP SØRVEST SA","source":"https://www.coop.no/butikker/coop-mega/coop-mega-brueland-1249"}},{"type":"Feature","geometry":{"type":"Point","coordinates":[10.8460234,59.882915]},"properties":{"name":"Coop Mega Bøler","address":"Bølerlia 2, 0691 Oslo","chain":"mega","samvirkelag":"COOP ØST SA","source":"https://www.coop.no/butikker/coop-mega/coop-mega-boler-1097"}},{"type":"Feature","geometry":{"type":"Point","coordinates":[10.7770041,59.9265742]},"properties":{"name":"Coop Mega Carl Berner","address":"Trondheimsveien 127, 0565 Oslo","chain":"mega","samvirkelag":"COOP ØST SA","source":"https://www.coop.no/butikker/coop-mega/coop-mega-carl-berner-2643"}},{"type":"Feature","geometry":{"type":"Point","coordinates":[6.00478,58.453]},"properties":{"name":"Coop Mega Egersund","address":"Fabrikkgaten 2, 4370 Egersund","chain":"mega","samvirkelag":"COOP ØKONOM SA","source":"https://www.coop.no/butikker/coop-mega/coop-mega-egersund-1228"}},{"type":"Feature","geometry":{"type":"Point","coordinates":[15.391514,67.258046]},"properties":{"name":"Coop Mega Fauske","address":"Sjøgata 62-64, 8200 Fauske","chain":"mega","samvirkelag":"COOP NORDLAND SA","source":"https://www.coop.no/butikker/coop-mega/coop-mega-fauske-2581"}},{"type":"Feature","geometry":{"type":"Point","coordinates":[10.9802869,59.9410472]},"properties":{"name":"Coop Mega Fjellhamar","address":"Haneborgveien 103, 1472 Fjellhamar","chain":"mega","samvirkelag":"COOP ØST SA","source":"https://www.coop.no/butikker/coop-mega/coop-mega-fjellhamar-2527"}},{"type":"Feature","geometry":{"type":"Point","coordinates":[10.9395,59.2139]},"properties":{"name":"Coop Mega Fredrikstad","address":"Brochs gate 8, 1607 Fredrikstad","chain":"mega","samvirkelag":"COOP ØST SA","source":"https://www.coop.no/butikker/coop-mega/coop-mega-fredrikstad-1085"}},{"type":"Feature","geometry":{"type":"Point","coordinates":[5.732261,58.905055]},"properties":{"name":"Coop Mega Gausel","address":"Gullspennetunet 1, 4032 Stavanger","chain":"mega","samvirkelag":"NORSK BUTIKKDRIFT AS","source":"https://www.coop.no/butikker/coop-mega/coop-mega-gausel-4366"}},{"type":"Feature","geometry":{"type":"Point","coordinates":[10.9180596,59.9971129]},"properties":{"name":"Coop Mega Hagan","address":"Hellinga 8, 1481 Hagan","chain":"mega","samvirkelag":"COOP ØST SA","source":"https://www.coop.no/butikker/coop-mega/coop-mega-hagan-1092"}},{"type":"Feature","geometry":{"type":"Point","coordinates":[10.6741105,59.9244853]},"properties":{"name":"Coop Mega Harbitz Torg","address":"Harbitzalleen 19, 0275 Oslo","chain":"mega","samvirkelag":"COOP ØST SA","source":"https://www.coop.no/butikker/coop-mega/coop-mega-harbitz-torg-2653"}},{"type":"Feature","geometry":{"type":"Point","coordinates":[10.79302,59.923411]},"properties":{"name":"Coop Mega Hasle Torg","address":"Grenseveien 50, 0579 Oslo","chain":"mega","samvirkelag":"NORSK BUTIKKDRIFT AS","source":"https://www.coop.no/butikker/coop-mega/coop-mega-hasle-torg-4358"}},{"type":"Feature","geometry":{"type":"Point","coordinates":[10.488275,59.854363]},"properties":{"name":"Coop Mega Holmen","address":"Vogellund 6, 1394 Nesbru","chain":"mega","samvirkelag":"NORSK BUTIKKDRIFT AS","source":"https://www.coop.no/butikker/coop-mega/coop-mega-holmen-4317"}},{"type":"Feature","geometry":{"type":"Point","coordinates":[10.2725,60.1771]},"properties":{"name":"Coop Mega Hønefoss","address":"Industrigata 1, 3515 Hønefoss","chain":"mega","samvirkelag":"COOP ØST SA","source":"https://www.coop.no/butikker/coop-mega/coop-mega-honefoss-1030"}},{"type":"Feature","geometry":{"type":"Point","coordinates":[5.74011,58.9480458]},"properties":{"name":"Coop Mega Kilden","address":"Gartnerveien 15, 4016 Stavanger","chain":"mega","samvirkelag":"NORSK BUTIKKDRIFT AS","source":"https://www.coop.no/butikker/coop-mega/coop-mega-kilden-4551"}},{"type":"Feature","geometry":{"type":"Point","coordinates":[5.6256573,58.77898]},"properties":{"name":"Coop Mega Klepp","address":"Solavegen 25, 4351 Kleppe","chain":"mega","samvirkelag":"COOP KLEPP SA","source":"https://www.coop.no/butikker/coop-mega/coop-mega-klepp-1265"}},{"type":"Feature","geometry":{"type":"Point","coordinates":[10.7980987,59.8103704]},"properties":{"name":"Coop Mega Kolbotn","address":"Kolbotnveien 35, 1410 Kolbotn","chain":"mega","samvirkelag":"COOP ØST SA","source":"https://www.coop.no/butikker/coop-mega/coop-mega-kolbotn-1005"}},{"type":"Feature","geometry":{"type":"Point","coordinates":[7.73243,63.1095]},"properties":{"name":"Coop Mega Kristiansund","address":"Arnulf Øverlandsgata 8, 6509 Kristiansund","chain":"mega","samvirkelag":"COOP NORDVEST SA","source":"https://www.coop.no/butikker/coop-mega/coop-mega-kristiansund-2438"}},{"type":"Feature","geometry":{"type":"Point","coordinates":[10.4527,61.1276]},"properties":{"name":"Coop Mega Lillehammer","address":"Gudbrandsdalsvegen 188, 2619 Lillehammer","chain":"mega","samvirkelag":"COOP INNLANDET SA","source":"https://www.coop.no/butikker/coop-mega/coop-mega-lillehammer-2079"}},{"type":"Feature","geometry":{"type":"Point","coordinates":[10.8354705,59.9427801]},"properties":{"name":"Coop Mega Linderud","address":"Erich Mogensøns vei 38, 0594 Oslo","chain":"mega","samvirkelag":"NORSK BUTIKKDRIFT AS","source":"https://www.coop.no/butikker/coop-mega/coop-mega-linderud-4318"}},{"type":"Feature","geometry":{"type":"Point","coordinates":[5.68097,58.9527]},"properties":{"name":"Coop Mega Madla","address":"Madlakrossen 7, 4042 Hafrsfjord","chain":"mega","samvirkelag":"MADLA HANDELSLAG SA","source":"https://www.coop.no/butikker/coop-mega/coop-mega-madla-4001"}},{"type":"Feature","geometry":{"type":"Point","coordinates":[10.5853485,59.9182906]},"properties":{"name":"Coop Mega Meglergården","address":"Gamle Ringeriksvei 43c, 1357 Bekkestua","chain":"mega","samvirkelag":"COOP VESTVIKEN SA","source":"https://www.coop.no/butikker/coop-mega/coop-mega-meglergarden-2599"}},{"type":"Feature","geometry":{"type":"Point","coordinates":[5.6807278,58.9524723]},"properties":{"name":"Coop Mega Madla Express","address":"Madlakrossen 7, 4042 Hafrsfjord","chain":"mega","samvirkelag":"MADLA HANDELSLAG SA","source":"https://www.coop.no/butikker/coop-mega/coop-mega-madla-express-5367"}},{"type":"Feature","geometry":{"type":"Point","coordinates":[8.0247031,58.1538137]},"properties":{"name":"Coop Mega Lund","address":"Stadionveien 1, 4632 Kristiansand","chain":"mega","samvirkelag":"NORSK BUTIKKDRIFT AS","source":"https://www.coop.no/butikker/coop-mega/coop-mega-lund-4373"}},{"type":"Feature","geometry":{"type":"Point","coordinates":[5.322765,60.3063]},"properties":{"name":"Coop Mega Nordås","address":"Søråshøgda 9, 5235 Rådal","chain":"mega","samvirkelag":"NORSK BUTIKKDRIFT AS","source":"https://www.coop.no/butikker/coop-mega/coop-mega-nordas-4322"}},{"type":"Feature","geometry":{"type":"Point","coordinates":[10.7657888,59.949565]},"properties":{"name":"Coop Mega Nydalen","address":"Nydalsveien 33, 0484 Oslo","chain":"mega","samvirkelag":"NORSK BUTIKKDRIFT AS","source":"https://www.coop.no/butikker/coop-mega/coop-mega-nydalen-4941"}},{"type":"Feature","geometry":{"type":"Point","coordinates":[10.427634,63.403017]},"properties":{"name":"Coop Mega Nardo","address":"Hans Baucksvei 1, 7030 Trondheim","chain":"mega","samvirkelag":"NORSK BUTIKKDRIFT AS","source":"https://www.coop.no/butikker/coop-mega/coop-mega-nardo-4365"}},{"type":"Feature","geometry":{"type":"Point","coordinates":[7.1828267,62.7372827]},"properties":{"name":"Coop Mega Molde","address":"Birger Hatlebakks veg 5, 6415 Molde","chain":"mega","samvirkelag":"COOP NORDVEST SA","source":"https://www.coop.no/butikker/coop-mega/coop-mega-molde-1516"}},{"type":"Feature","geometry":{"type":"Point","coordinates":[10.88169048,60.0468325]},"properties":{"name":"Coop Mega Nittedal","address":"Mattias Skytters vei 2, 1482 Nittedal","chain":"mega","samvirkelag":"NORSK BUTIKKDRIFT AS","source":"https://www.coop.no/butikker/coop-mega/coop-mega-nittedal-4368"}},{"type":"Feature","geometry":{"type":"Point","coordinates":[9.6903301,62.5950125]},"properties":{"name":"Coop Mega Oppdal","address":"Aunevegen 3, 7340 Oppdal","chain":"mega","samvirkelag":"COOP OPPDAL SA","source":"https://www.coop.no/butikker/coop-mega/coop-mega-oppdal-1652"}},{"type":"Feature","geometry":{"type":"Point","coordinates":[9.84466,63.2975]},"properties":{"name":"Coop Mega Orkanger","address":"Orkdalsveien 113, 7300 Orkanger","chain":"mega","samvirkelag":"COOP NORDVEST SA","source":"https://www.coop.no/butikker/coop-mega/coop-mega-orkanger-1796"}},{"type":"Feature","geometry":{"type":"Point","coordinates":[10.643279,59.946263]},"properties":{"name":"Coop Mega Røa","address":"Tore Hals Mejdells vei 5, 0751 Oslo","chain":"mega","samvirkelag":"COOP VESTVIKEN SA","source":"https://www.coop.no/butikker/coop-mega/coop-mega-roa-2616"}},{"type":"Feature","geometry":{"type":"Point","coordinates":[5.618155,58.9989851]},"properties":{"name":"Coop Mega Randaberg","address":"Vistenesveien 2, 4070 Randaberg","chain":"mega","samvirkelag":"COOP SØRVEST SA","source":"https://www.coop.no/butikker/coop-mega/coop-mega-randaberg-1257"}},{"type":"Feature","geometry":{"type":"Point","coordinates":[11.3811,62.5756]},"properties":{"name":"Coop Mega Røros","address":"Peder Hiortgata 7, 7374 Røros","chain":"mega","samvirkelag":"COOP MIDT-NORGE SA","source":"https://www.coop.no/butikker/coop-mega/coop-mega-roros-1659"}},{"type":"Feature","geometry":{"type":"Point","coordinates":[5.64114,58.6682]},"properties":{"name":"Coop Mega Nærbø","address":"Torggata 2, 4365 Nærbø","chain":"mega","samvirkelag":"COOP NÆRBØ SA","source":"https://www.coop.no/butikker/coop-mega/coop-mega-naerbo-1272"}},{"type":"Feature","geometry":{"type":"Point","coordinates":[10.9583564,59.9275934]},"properties":{"name":"Coop Mega Metro","address":"Biblioteksgata 30, 1473 Lørenskog","chain":"mega","samvirkelag":"COOP ØST SA","source":"https://www.coop.no/butikker/coop-mega/coop-mega-metro-1016"}},{"type":"Feature","geometry":{"type":"Point","coordinates":[10.768553,59.93843]},"properties":{"name":"Coop Mega Sandaker","address":"Sandakerveien 59, 0477 Oslo","chain":"mega","samvirkelag":"NORSK BUTIKKDRIFT AS","source":"https://www.coop.no/butikker/coop-mega/coop-mega-sandaker-4557"}},{"type":"Feature","geometry":{"type":"Point","coordinates":[10.4572122,63.4357293]},"properties":{"name":"Coop Mega Sirkus Shopping","address":"Falkenborgvegen 9, 7044 Trondheim","chain":"mega","samvirkelag":"NORSK BUTIKKDRIFT AS","source":"https://www.coop.no/butikker/coop-mega/coop-mega-sirkus-shopping-4561"}},{"type":"Feature","geometry":{"type":"Point","coordinates":[10.677524,59.921219]},"properties":{"name":"Coop Mega Sjølyst","address":"Karenslyst Allé 58, 0277 Oslo","chain":"mega","samvirkelag":"NORSK BUTIKKDRIFT AS","source":"https://www.coop.no/butikker/coop-mega/coop-mega-sjolyst-4307"}},{"type":"Feature","geometry":{"type":"Point","coordinates":[10.5023978,59.8735786]},"properties":{"name":"Coop Mega Slependen","address":"Pustutveien 6-14, 1396 Billingstad","chain":"mega","samvirkelag":"COOP VESTVIKEN SA","source":"https://www.coop.no/butikker/coop-mega/coop-mega-slependen-2831"}},{"type":"Feature","geometry":{"type":"Point","coordinates":[11.191385,60.7169365]},"properties":{"name":"Coop Mega Stange","address":"Heggedalsvegen 15, 2335 Stange","chain":"mega","samvirkelag":"COOP INNLANDET SA","source":"https://www.coop.no/butikker/coop-mega/coop-mega-stange-2044"}},{"type":"Feature","geometry":{"type":"Point","coordinates":[10.7747584,59.9470437]},"properties":{"name":"Coop Mega Storo","address":"Vitaminveien 7, 0485 Oslo","chain":"mega","samvirkelag":"NORSK BUTIKKDRIFT AS","source":"https://www.coop.no/butikker/coop-mega/coop-mega-storo-4312"}},{"type":"Feature","geometry":{"type":"Point","coordinates":[5.6465798,58.8848381]},"properties":{"name":"Coop Mega Sola","address":"Solakrossen 15-17, 4050 Sola","chain":"mega","samvirkelag":"COOP ØKONOM SA","source":"https://www.coop.no/butikker/coop-mega/coop-mega-sola-1281"}},{"type":"Feature","geometry":{"type":"Point","coordinates":[7.814663,58.097411]},"properties":{"name":"Coop Mega Søgne","address":"Sentrumsveien 1, 4640 Søgne","chain":"mega","samvirkelag":"NORSK BUTIKKDRIFT AS","source":"https://www.coop.no/butikker/coop-mega/coop-mega-sogne-4753"}},{"type":"Feature","geometry":{"type":"Point","coordinates":[5.587495,58.9345754]},"properties":{"name":"Coop Mega Tananger","address":"Risavika Havnering 12a, 4056 Tananger","chain":"mega","samvirkelag":"MADLA HANDELSLAG SA","source":"https://www.coop.no/butikker/coop-mega/coop-mega-tananger-2728"}},{"type":"Feature","geometry":{"type":"Point","coordinates":[15.4182593,68.695993]},"properties":{"name":"Coop Mega Sortland","address":"Strandgata 12, 8400 Sortland","chain":"mega","samvirkelag":"COOP NORDLAND SA","source":"https://www.coop.no/butikker/coop-mega/coop-mega-sortland-1898"}},{"type":"Feature","geometry":{"type":"Point","coordinates":[12.2615695,61.3153896]},"properties":{"name":"Coop Mega Trysil","address":"Storvegen 2, 2420 Trysil","chain":"mega","samvirkelag":"COOP INNLANDET SA","source":"https://www.coop.no/butikker/coop-mega/coop-mega-trysil-2074"}},{"type":"Feature","geometry":{"type":"Point","coordinates":[10.924233,63.468938]},"properties":{"name":"Coop Mega Torgkvartalet","address":"Stokmovegen 2, 7500 Stjørdal","chain":"mega","samvirkelag":"COOP MIDT-NORGE SA","source":"https://www.coop.no/butikker/coop-mega/coop-mega-torgkvartalet-2579"}},{"type":"Feature","geometry":{"type":"Point","coordinates":[10.7360365,59.9499228]},"properties":{"name":"Coop Mega Ullevål","address":"Sognsveien 77C, 0855 Oslo","chain":"mega","samvirkelag":"NORSK BUTIKKDRIFT AS","source":"https://www.coop.no/butikker/coop-mega/coop-mega-ulleval-4292"}},{"type":"Feature","geometry":{"type":"Point","coordinates":[5.848,62.3427]},"properties":{"name":"Coop Mega Ulsteinvik","address":"Vikemyra 1, 6065 Ulsteinvik","chain":"mega","samvirkelag":"COOP NORDVEST SA","source":"https://www.coop.no/butikker/coop-mega/coop-mega-ulsteinvik-1542"}},{"type":"Feature","geometry":{"type":"Point","coordinates":[11.4816,63.7938]},"properties":{"name":"Coop Mega Verdal","address":"Nordgata 14, 7650 Verdal","chain":"mega","samvirkelag":"COOP MIDT-NORGE SA","source":"https://www.coop.no/butikker/coop-mega/coop-mega-verdal-1739"}},{"type":"Feature","geometry":{"type":"Point","coordinates":[10.4417,63.4245]},"properties":{"name":"Coop Mega Valentinlyst","address":"Anders Estenstads veg 4, 7046 Trondheim","chain":"mega","samvirkelag":"COOP MIDT-NORGE SA","source":"https://www.coop.no/butikker/coop-mega/coop-mega-valentinlyst-1823"}},{"type":"Feature","geometry":{"type":"Point","coordinates":[10.7038199,59.9432098]},"properties":{"name":"Coop Mega Vinderen","address":"Borgenveien 48, 0370 Oslo","chain":"mega","samvirkelag":"NORSK BUTIKKDRIFT AS","source":"https://www.coop.no/butikker/coop-mega/coop-mega-vinderen-4316"}},{"type":"Feature","geometry":{"type":"Point","coordinates":[6.0704,62.1432]},"properties":{"name":"Coop Mega Volda","address":"Hamnegata 12, 6100 Volda","chain":"mega","samvirkelag":"COOP NORDVEST SA","source":"https://www.coop.no/butikker/coop-mega/coop-mega-volda-1558"}},{"type":"Feature","geometry":{"type":"Point","coordinates":[7.961823,58.129198]},"properties":{"name":"Coop Mega Vågsbygd","address":"Vågsbygd Ringvei 100, 4621 Kristiansand","chain":"mega","samvirkelag":"NORSK BUTIKKDRIFT AS","source":"https://www.coop.no/butikker/coop-mega/coop-mega-vagsbygd-4309"}},{"type":"Feature","geometry":{"type":"Point","coordinates":[5.8453527,58.7702863]},"properties":{"name":"Coop Mega Ålgård","address":"Ole Nielsens vei 25, 4330 Ålgård","chain":"mega","samvirkelag":"COOP GJESDAL SA","source":"https://www.coop.no/butikker/coop-mega/coop-mega-algard-1323"}},{"type":"Feature","geometry":{"type":"Point","coordinates":[11.4685689,60.1228189]},"properties":{"name":"Coop Mega Årnes","address":"Rådhusgata 11, 2150 Årnes","chain":"mega","samvirkelag":"COOP ØST SA","source":"https://www.coop.no/butikker/coop-mega/coop-mega-arnes-1035"}},{"type":"Feature","geometry":{"type":"Point","coordinates":[11.0563884,60.8093128]},"properties":{"name":"Coop Prix Ajer","address":"Vognvegen 133, 2315 Hamar","chain":"prix","samvirkelag":"COOP INNLANDET SA","source":"https://www.coop.no/butikker/coop-prix/coop-prix-ajer-2620"}},{"type":"Feature","geometry":{"type":"Point","coordinates":[11.0566735,59.960195]},"properties":{"name":"Coop Prix Alexander Kiellands Gt","address":"Alexander Kiellands Gate 10A, 2000 Lillestrøm","chain":"prix","samvirkelag":"NORSK BUTIKKDRIFT AS","source":"https://www.coop.no/butikker/coop-prix/coop-prix-alexander-kiellands-gt-4539"}},{"type":"Feature","geometry":{"type":"Point","coordinates":[5.7491633,58.971822]},"properties":{"name":"Coop Prix Badedammen","address":"Banevigsgata 7, 4014 Stavanger","chain":"prix","samvirkelag":"COOP ØKONOM SA","source":"https://www.coop.no/butikker/coop-prix/coop-prix-badedammen-2430"}},{"type":"Feature","geometry":{"type":"Point","coordinates":[16.1198901,69.314539]},"properties":{"name":"Coop Prix Andenes","address":"Storgata 69, 8480 Andenes","chain":"prix","samvirkelag":"COOP NORDLAND SA","source":"https://www.coop.no/butikker/coop-prix/coop-prix-andenes-1900"}},{"type":"Feature","geometry":{"type":"Point","coordinates":[9.55029,60.8227]},"properties":{"name":"Coop Prix Bagn","address":"Storebruvegen 30, 2930 Bagn","chain":"prix","samvirkelag":"COOP ØST SA","source":"https://www.coop.no/butikker/coop-prix/coop-prix-bagn-2440"}},{"type":"Feature","geometry":{"type":"Point","coordinates":[6.5368828,61.2101266]},"properties":{"name":"Coop Prix Balestrand","address":"Holmen 1, 6898 Balestrand","chain":"prix","samvirkelag":"COOP NORDVEST SA","source":"https://www.coop.no/butikker/coop-prix/coop-prix-balestrand-1433"}},{"type":"Feature","geometry":{"type":"Point","coordinates":[14.7584,66.9886]},"properties":{"name":"Coop Prix Beiarn","address":"Østre Beiarveien 5, 8110 Moldjord","chain":"prix","samvirkelag":"COOP NORDLAND SA","source":"https://www.coop.no/butikker/coop-prix/coop-prix-beiarn-1894"}},{"type":"Feature","geometry":{"type":"Point","coordinates":[11.3918651,64.1080574]},"properties":{"name":"Coop Prix Beitstad","address":"Namsosvegen 946, 7730 Beitstad","chain":"prix","samvirkelag":"COOP MIDT-NORGE SA","source":"https://www.coop.no/butikker/coop-prix/coop-prix-beitstad-1700"}},{"type":"Feature","geometry":{"type":"Point","coordinates":[12.1974657,65.3696877]},"properties":{"name":"Coop Prix Berg","address":"Klakkjeveien 5, 8920 Sømna","chain":"prix","samvirkelag":"COOP NORDLAND SA","source":"https://www.coop.no/butikker/coop-prix/coop-prix-berg-2651"}},{"type":"Feature","geometry":{"type":"Point","coordinates":[10.5866537,59.9183598]},"properties":{"name":"Coop Prix Bekkestua","address":"Gamle Ringeriksvei 39, 1357 Bekkestua","chain":"prix","samvirkelag":"COOP VESTVIKEN SA","source":"https://www.coop.no/butikker/coop-prix/coop-prix-bekkestua-2697"}},{"type":"Feature","geometry":{"type":"Point","coordinates":[10.672907,59.9572142]},"properties":{"name":"Coop Prix Besserud","address":"Holmenkollveien 96 A, 0784 Oslo","chain":"prix","samvirkelag":"NORSK BUTIKKDRIFT AS","source":"https://www.coop.no/butikker/coop-prix/coop-prix-besserud-4278"}},{"type":"Feature","geometry":{"type":"Point","coordinates":[10.6503268,59.9197143]},"properties":{"name":"Coop Prix Bestum","address":"Vækerøveien 24, 0282 Oslo","chain":"prix","samvirkelag":"NORSK BUTIKKDRIFT AS","source":"https://www.coop.no/butikker/coop-prix/coop-prix-bestum-4534"}},{"type":"Feature","geometry":{"type":"Point","coordinates":[12.2302587,65.1260387]},"properties":{"name":"Coop Prix Bindalseidet","address":"Kalvikveien 25, 7982 Bindalseidet","chain":"prix","samvirkelag":"COOP NORDLAND SA","source":"https://www.coop.no/butikker/coop-prix/coop-prix-bindalseidet-2844"}},{"type":"Feature","geometry":{"type":"Point","coordinates":[20.8315,69.4955]},"properties":{"name":"Coop Prix Birtavarre","address":"Verksvegen 9, 9147 Birtavarre","chain":"prix","samvirkelag":"COOP NORD SA","source":"https://www.coop.no/butikker/coop-prix/coop-prix-birtavarre-1936"}},{"type":"Feature","geometry":{"type":"Point","coordinates":[13.8363757,66.1524812]},"properties":{"name":"Coop Prix Bjerka","address":"Bjerkadalsveien, 8643 Bjerka","chain":"prix","samvirkelag":"COOP MIDT-NORGE SA","source":"https://www.coop.no/butikker/coop-prix/coop-prix-bjerka-1732"}},{"type":"Feature","geometry":{"type":"Point","coordinates":[6.07293,58.5837]},"properties":{"name":"Coop Prix Bjerkreim","address":"Røyslandsvegen 135, 4387 Bjerkreim","chain":"prix","samvirkelag":"COOP VIKESÅ SA","source":"https://www.coop.no/butikker/coop-prix/coop-prix-bjerkreim-1290"}},{"type":"Feature","geometry":{"type":"Point","coordinates":[10.485156,59.793024]},"properties":{"name":"Coop Prix Bjerkås. Nbda","address":"Høymyrmarka 3, 1391 Vollen","chain":"prix","samvirkelag":"NORSK BUTIKKDRIFT AS","source":"https://www.coop.no/butikker/coop-prix/coop-prix-bjerkas-nbda-4056"}},{"type":"Feature","geometry":{"type":"Point","coordinates":[10.6423631,59.830694]},"properties":{"name":"Coop Prix Bjørnemyr","address":"Tosletta 44, 1453 Bjørnemyr","chain":"prix","samvirkelag":"COOP ØST SA","source":"https://www.coop.no/butikker/coop-prix/coop-prix-bjornemyr-1007"}},{"type":"Feature","geometry":{"type":"Point","coordinates":[13.8121509,65.9082168]},"properties":{"name":"Coop Prix Bleikvassli","address":"Langliveien 4, 8647 Bleikvasslia","chain":"prix","samvirkelag":"COOP NORDLAND SA","source":"https://www.coop.no/butikker/coop-prix/coop-prix-bleikvassli-2818"}},{"type":"Feature","geometry":{"type":"Point","coordinates":[5.4392925,59.2323194]},"properties":{"name":"Coop Prix Bokn","address":"Føresvikvegen 1, 5561 Bokn","chain":"prix","samvirkelag":"COOP SØRVEST SA","source":"https://www.coop.no/butikker/coop-prix/coop-prix-bokn-1226"}},{"type":"Feature","geometry":{"type":"Point","coordinates":[5.1795296,59.7947127]},"properties":{"name":"Coop Prix Bremnes","address":"Kyrkjegardsvegen 1, 5430 Bremnes","chain":"prix","samvirkelag":"COOP SØRVEST SA","source":"https://www.coop.no/butikker/coop-prix/coop-prix-bremnes-1242"}},{"type":"Feature","geometry":{"type":"Point","coordinates":[5.7474295,58.5397981]},"properties":{"name":"Coop Prix Brusand","address":"Bru 17, 4363 Brusand","chain":"prix","samvirkelag":"COOP BRUSAND SA","source":"https://www.coop.no/butikker/coop-prix/coop-prix-brusand-2762"}},{"type":"Feature","geometry":{"type":"Point","coordinates":[8.092787,61.91429]},"properties":{"name":"Coop Prix Bruvoll","address":"Bråtåvegen 6, 2693 Nordberg","chain":"prix","samvirkelag":"COOP OTTADALEN SA","source":"https://www.coop.no/butikker/coop-prix/coop-prix-bruvoll-2802"}},{"type":"Feature","geometry":{"type":"Point","coordinates":[17.694494,69.0918408]},"properties":{"name":"Coop Prix Brøstadbotn","address":"Tverrveien 7, 9311 Brøstadbotn","chain":"prix","samvirkelag":"COOP NORD SA","source":"https://www.coop.no/butikker/coop-prix/coop-prix-brostadbotn-1916"}},{"type":"Feature","geometry":{"type":"Point","coordinates":[10.4836063,62.8835927]},"properties":{"name":"Coop Prix Budal","address":"Synnerdalsveien 7, 7298 Budal","chain":"prix","samvirkelag":"BUDAL SAMVIRKELAG SA","source":"https://www.coop.no/butikker/coop-prix/coop-prix-budal-2761"}},{"type":"Feature","geometry":{"type":"Point","coordinates":[22.0510687,69.9390948]},"properties":{"name":"Coop Prix Burfjord","address":"Fv364, 9161 Burfjord","chain":"prix","samvirkelag":"COOP FINNMARK SA","source":"https://www.coop.no/butikker/coop-prix/coop-prix-burfjord-1998"}},{"type":"Feature","geometry":{"type":"Point","coordinates":[10.704104,59.918708]},"properties":{"name":"Coop Prix Bygdøy Allè","address":"Bygdøy allé 61, 0265 Oslo","chain":"prix","samvirkelag":"NORSK BUTIKKDRIFT AS","source":"https://www.coop.no/butikker/coop-prix/coop-prix-bygdoy-alle-4266"}},{"type":"Feature","geometry":{"type":"Point","coordinates":[7.8055799,58.6701475]},"properties":{"name":"Coop Prix Byglandsfjord","address":"Strandgata 7, 4741 Byglandsfjord","chain":"prix","samvirkelag":"COOP SØRVEST SA","source":"https://www.coop.no/butikker/coop-prix/coop-prix-byglandsfjord-1332"}},{"type":"Feature","geometry":{"type":"Point","coordinates":[7.9903,58.148212]},"properties":{"name":"Coop Prix Byhaven","address":"Tordenskjoldsgate 36, 4612 Kristiansand","chain":"prix","samvirkelag":"COOP SØRVEST SA","source":"https://www.coop.no/butikker/coop-prix/coop-prix-byhaven-2716"}},{"type":"Feature","geometry":{"type":"Point","coordinates":[6.50585,61.73324]},"properties":{"name":"Coop Prix Byrkjelo","address":"Fv60, 6826 Byrkjelo","chain":"prix","samvirkelag":"COOP NORDVEST SA","source":"https://www.coop.no/butikker/coop-prix/coop-prix-byrkjelo-1467"}},{"type":"Feature","geometry":{"type":"Point","coordinates":[8.3476516,61.7208854]},"properties":{"name":"Coop Prix Bøverdalen","address":"Sognefjellsvegen 1943, 2687 Bøverdalen","chain":"prix","samvirkelag":"COOP OTTADALEN SA","source":"https://www.coop.no/butikker/coop-prix/coop-prix-boverdalen-2824"}},{"type":"Feature","geometry":{"type":"Point","coordinates":[11.2075257,60.2491512]},"properties":{"name":"Coop Prix Dal","address":"Furusethsenteret, 2072 Dal","chain":"prix","samvirkelag":"COOP ØST SA","source":"https://www.coop.no/butikker/coop-prix/coop-prix-dal-1224"}},{"type":"Feature","geometry":{"type":"Point","coordinates":[11.422,59.3564]},"properties":{"name":"Coop Prix Degernes","address":"Idrettsveien 2, 1892 Degernes","chain":"prix","samvirkelag":"COOP ØST SA","source":"https://www.coop.no/butikker/coop-prix/coop-prix-degernes-1065"}},{"type":"Feature","geometry":{"type":"Point","coordinates":[9.2483409,61.9873143]},"properties":{"name":"Coop Prix Dovre","address":"Kongsvegen 12, 2662 Dovre","chain":"prix","samvirkelag":"COOP INNLANDET SA","source":"https://www.coop.no/butikker/coop-prix/coop-prix-dovre-2772"}},{"type":"Feature","geometry":{"type":"Point","coordinates":[7.0678124,60.4667162]},"properties":{"name":"Coop Prix Eidfjord","address":"Ostangvegen 11, 5783 Eidfjord","chain":"prix","samvirkelag":"COOP EIDFJORD SA","source":"https://www.coop.no/butikker/coop-prix/coop-prix-eidfjord-2842"}},{"type":"Feature","geometry":{"type":"Point","coordinates":[7.2313185,58.465934]},"properties":{"name":"Coop Prix Eiken","address":"Langebakk 39, 4596 Eiken","chain":"prix","samvirkelag":"COOP SØRVEST SA","source":"https://www.coop.no/butikker/coop-prix/coop-prix-eiken-1325"}},{"type":"Feature","geometry":{"type":"Point","coordinates":[6.9208438,62.90834]},"properties":{"name":"Coop Prix Bud","address":"Strandavegen 1, 6430 Bud","chain":"prix","samvirkelag":"COOP NORDVEST SA","source":"https://www.coop.no/butikker/coop-prix/coop-prix-bud-1478"}},{"type":"Feature","geometry":{"type":"Point","coordinates":[6.6704161,58.3117331]},"properties":{"name":"Coop Prix Drangeid","address":"Glendrangeveien 5, 4406 Flekkefjord","chain":"prix","samvirkelag":"NORSK BUTIKKDRIFT AS","source":"https://www.coop.no/butikker/coop-prix/coop-prix-drangeid-4719"}},{"type":"Feature","geometry":{"type":"Point","coordinates":[12.577775,66.171178]},"properties":{"name":"Coop Prix Dønna","address":"Stavsengveien 30, 8820 Dønna","chain":"prix","samvirkelag":"COOP DØNNA SA","source":"https://www.coop.no/butikker/coop-prix/coop-prix-donna-1624"}},{"type":"Feature","geometry":{"type":"Point","coordinates":[7.3467102,59.3524011]},"properties":{"name":"Coop Prix Bykle","address":"Setesdalsvegen 4070, 4754 Bykle","chain":"prix","samvirkelag":"COOP SØRVEST SA","source":"https://www.coop.no/butikker/coop-prix/coop-prix-bykle-1324"}},{"type":"Feature","geometry":{"type":"Point","coordinates":[8.6822489,63.7979012]},"properties":{"name":"Coop Prix Dyrøy","address":"Dyrøyveien 792, 7273 Norddyrøy","chain":"prix","samvirkelag":"COOP NORDVEST SA","source":"https://www.coop.no/butikker/coop-prix/coop-prix-dyroy-2757"}},{"type":"Feature","geometry":{"type":"Point","coordinates":[13.5355575,66.7800193]},"properties":{"name":"Coop Prix Engavågen","address":"Enga 1, 8170 Engavågen","chain":"prix","samvirkelag":"COOP NORDLAND SA","source":"https://www.coop.no/butikker/coop-prix/coop-prix-engavagen-2677"}},{"type":"Feature","geometry":{"type":"Point","coordinates":[11.96041,61.7571]},"properties":{"name":"Coop Prix Engerdal","address":"Engerdalsveien 1790, 2440 Engerdal","chain":"prix","samvirkelag":"COOP INNLANDET SA","source":"https://www.coop.no/butikker/coop-prix/coop-prix-engerdal-2062"}},{"type":"Feature","geometry":{"type":"Point","coordinates":[10.7949473,59.9096798]},"properties":{"name":"Coop Prix Etterstad","address":"Etterstadsletta 3, 0660 Oslo","chain":"prix","samvirkelag":"COOP ØST SA","source":"https://www.coop.no/butikker/coop-prix/coop-prix-etterstad-1120"}},{"type":"Feature","geometry":{"type":"Point","coordinates":[10.406558,59.272926]},"properties":{"name":"Coop Prix Farmannsveien","address":"Farmannsveien 28, 3111 Tønsberg","chain":"prix","samvirkelag":"NORSK BUTIKKDRIFT AS","source":"https://www.coop.no/butikker/coop-prix/coop-prix-farmannsveien-4696"}},{"type":"Feature","geometry":{"type":"Point","coordinates":[12.204,65.4632]},"properties":{"name":"Coop Prix Farmen","address":"Farmenveien 40, 8900 Brønnøysund","chain":"prix","samvirkelag":"COOP NORDLAND SA","source":"https://www.coop.no/butikker/coop-prix/coop-prix-farmen-2130"}},{"type":"Feature","geometry":{"type":"Point","coordinates":[7.1624701,62.9738584]},"properties":{"name":"Coop Prix Farstad","address":"Farstadvegen 1756, 6444 Farstad","chain":"prix","samvirkelag":"COOP NORDVEST SA","source":"https://www.coop.no/butikker/coop-prix/coop-prix-farstad-1474"}},{"type":"Feature","geometry":{"type":"Point","coordinates":[6.8175108,58.2694979]},"properties":{"name":"Coop Prix Feda","address":"Leirvollen 2, 4485 Feda","chain":"prix","samvirkelag":"COOP SØRVEST SA","source":"https://www.coop.no/butikker/coop-prix/coop-prix-feda-1353"}},{"type":"Feature","geometry":{"type":"Point","coordinates":[11.158421,60.4817855]},"properties":{"name":"Coop Prix Feiring","address":"Feiringvegen 1157, 2093 Feiring","chain":"prix","samvirkelag":"COOP ØST SA","source":"https://www.coop.no/butikker/coop-prix/coop-prix-feiring-1223"}},{"type":"Feature","geometry":{"type":"Point","coordinates":[8.5781761,61.1261781]},"properties":{"name":"Coop Prix Fjellvang","address":"Tyinvegen, 2975 Vang i Valdres","chain":"prix","samvirkelag":"COOP ØST SA","source":"https://www.coop.no/butikker/coop-prix/coop-prix-fjellvang-2101"}},{"type":"Feature","geometry":{"type":"Point","coordinates":[9.993528,62.1330913]},"properties":{"name":"Coop Prix Folldal","address":"Gruvvegen 2, 2580 Folldal","chain":"prix","samvirkelag":"COOP OPPDAL SA","source":"https://www.coop.no/butikker/coop-prix/coop-prix-folldal-1645"}},{"type":"Feature","geometry":{"type":"Point","coordinates":[10.621642,59.897744]},"properties":{"name":"Coop Prix Fornebu","address":"Forneburingen 248, 1364 Fornebu","chain":"prix","samvirkelag":"COOP VESTVIKEN SA","source":"https://www.coop.no/butikker/coop-prix/coop-prix-fornebu-2699"}},{"type":"Feature","geometry":{"type":"Point","coordinates":[10.052203,59.064739]},"properties":{"name":"Coop Prix Frankendalsveien","address":"Frankendalsveien 95, 3274 Larvik","chain":"prix","samvirkelag":"NORSK BUTIKKDRIFT AS","source":"https://www.coop.no/butikker/coop-prix/coop-prix-frankendalsveien-4740"}},{"type":"Feature","geometry":{"type":"Point","coordinates":[7.7859886,63.0380543]},"properties":{"name":"Coop Prix Frei","address":"Kongsveien 128, 6524 Frei","chain":"prix","samvirkelag":"COOP NORDVEST SA","source":"https://www.coop.no/butikker/coop-prix/coop-prix-frei-1538"}},{"type":"Feature","geometry":{"type":"Point","coordinates":[23.6669,70.6733]},"properties":{"name":"Coop Prix Fuglenes","address":"Tromsveien 17, 9600 Hammerfest","chain":"prix","samvirkelag":"COOP HAMMERFEST SA","source":"https://www.coop.no/butikker/coop-prix/coop-prix-fuglenes-1918"}},{"type":"Feature","geometry":{"type":"Point","coordinates":[7.2967303,61.4029565]},"properties":{"name":"Coop Prix Gaupne","address":"Rådhusvegen 3, 6868 Gaupne","chain":"prix","samvirkelag":"COOP NORDVEST SA","source":"https://www.coop.no/butikker/coop-prix/coop-prix-gaupne-1425"}},{"type":"Feature","geometry":{"type":"Point","coordinates":[9.9686337,59.931956]},"properties":{"name":"Coop Prix Geithus","address":"Folkvangveien 1, 3360 Geithus","chain":"prix","samvirkelag":"COOP VESTVIKEN SA","source":"https://www.coop.no/butikker/coop-prix/coop-prix-geithus-1147"}},{"type":"Feature","geometry":{"type":"Point","coordinates":[7.9987011,58.1608617]},"properties":{"name":"Coop Prix Gimlevang","address":"Ingerthas vei 1, 4630 Kristiansand","chain":"prix","samvirkelag":"COOP SØRVEST SA","source":"https://www.coop.no/butikker/coop-prix/coop-prix-gimlevang-1343"}},{"type":"Feature","geometry":{"type":"Point","coordinates":[9.0183986,58.8812699]},"properties":{"name":"Coop Prix Gjerstad","address":"Gjerstadveien 1337, 4980 Gjerstad","chain":"prix","samvirkelag":"COOP SØRVEST SA","source":"https://www.coop.no/butikker/coop-prix/coop-prix-gjerstad-1337"}},{"type":"Feature","geometry":{"type":"Point","coordinates":[7.1872315,62.7444064]},"properties":{"name":"Coop Prix Granlia","address":"Langmyrvegen 81, 6415 Molde","chain":"prix","samvirkelag":"COOP NORDVEST SA","source":"https://www.coop.no/butikker/coop-prix/coop-prix-granlia-1513"}},{"type":"Feature","geometry":{"type":"Point","coordinates":[6.72061002,60.5245744]},"properties":{"name":"Coop Prix Granvin","address":"Hardangervegen 2566, 5736 Granvin","chain":"prix","samvirkelag":"COOP HORDALAND SA","source":"https://www.coop.no/butikker/coop-prix/coop-prix-granvin-2801"}},{"type":"Feature","geometry":{"type":"Point","coordinates":[7.8365126,58.1556001]},"properties":{"name":"Coop Prix Greipstad","address":"Songdalsveien 104 D, 4645 Nodeland","chain":"prix","samvirkelag":"COOP SØRVEST SA","source":"https://www.coop.no/butikker/coop-prix/coop-prix-greipstad-1341"}},{"type":"Feature","geometry":{"type":"Point","coordinates":[9.1741628,59.3877866]},"properties":{"name":"Coop Prix Gvarv","address":"Gvarvgata 41, 3810 Gvarv","chain":"prix","samvirkelag":"COOP SØRØST SA","source":"https://www.coop.no/butikker/coop-prix/coop-prix-gvarv-1192"}},{"type":"Feature","geometry":{"type":"Point","coordinates":[10.829506,59.723656]},"properties":{"name":"Coop Prix Hageveien","address":"Hageveien 2, 1423 Ski","chain":"prix","samvirkelag":"NORSK BUTIKKDRIFT AS","source":"https://www.coop.no/butikker/coop-prix/coop-prix-hageveien-4064"}},{"type":"Feature","geometry":{"type":"Point","coordinates":[11.1532061,62.9248333]},"properties":{"name":"Coop Prix Haltdalen","address":"Heksemvegen 77, 7383 Haltdalen","chain":"prix","samvirkelag":"COOP OPPDAL SA","source":"https://www.coop.no/butikker/coop-prix/coop-prix-haltdalen-2778"}},{"type":"Feature","geometry":{"type":"Point","coordinates":[8.8188921,63.7045068]},"properties":{"name":"Coop Prix Hamarvik","address":"Nordfrøyveien 25, 7263 Hamarvik","chain":"prix","samvirkelag":"COOP NORDVEST SA","source":"https://www.coop.no/butikker/coop-prix/coop-prix-hamarvik-2769"}},{"type":"Feature","geometry":{"type":"Point","coordinates":[10.740756,59.9159737]},"properties":{"name":"Coop Prix Hambros Plass","address":"C. J. Hambros plass 7, 0164 Oslo","chain":"prix","samvirkelag":"COOP ØST SA","source":"https://www.coop.no/butikker/coop-prix/coop-prix-hambros-plass-2633"}},{"type":"Feature","geometry":{"type":"Point","coordinates":[6.2684678,62.6408713]},"properties":{"name":"Coop Prix Haramsøy","address":"Ullavegen 114, 6290 Haramsøy","chain":"prix","samvirkelag":"COOP NORDVEST SA","source":"https://www.coop.no/butikker/coop-prix/coop-prix-haramsoy-2754"}},{"type":"Feature","geometry":{"type":"Point","coordinates":[6.4697728,62.7813684]},"properties":{"name":"Coop Prix Harøy","address":"Austrevegen 2-4, 6487 Harøy","chain":"prix","samvirkelag":"COOP NORDVEST SA","source":"https://www.coop.no/butikker/coop-prix/coop-prix-haroy-1482"}},{"type":"Feature","geometry":{"type":"Point","coordinates":[22.1614,70.4867]},"properties":{"name":"Coop Prix Hasvik","address":"Storgata 9, 9590 Hasvik","chain":"prix","samvirkelag":"COOP FINNMARK SA","source":"https://www.coop.no/butikker/coop-prix/coop-prix-hasvik-1921"}},{"type":"Feature","geometry":{"type":"Point","coordinates":[19.9619629,69.2679907]},"properties":{"name":"Coop Prix Hatteng","address":"Elvestrandveien 1, 9046 Oteren","chain":"prix","samvirkelag":"COOP NORD SA","source":"https://www.coop.no/butikker/coop-prix/coop-prix-hatteng-1955"}},{"type":"Feature","geometry":{"type":"Point","coordinates":[13.9886285,65.5969357]},"properties":{"name":"Coop Prix Hattfjelldal","address":"Ol Johans vei 1, 8692 Hattfjelldal","chain":"prix","samvirkelag":"COOP NORDLAND SA","source":"https://www.coop.no/butikker/coop-prix/coop-prix-hattfjelldal-2736"}},{"type":"Feature","geometry":{"type":"Point","coordinates":[24.6601,70.9967]},"properties":{"name":"Coop Prix Havøysund","address":"Torget 2, 9690 Havøysund","chain":"prix","samvirkelag":"COOP HAVØYSUND SA","source":"https://www.coop.no/butikker/coop-prix/coop-prix-havoysund-1970"}},{"type":"Feature","geometry":{"type":"Point","coordinates":[9.0693051,61.143283]},"properties":{"name":"Coop Prix Heggenes","address":"Bygdinveien 2128, 2940 Heggenes","chain":"prix","samvirkelag":"COOP ØST SA","source":"https://www.coop.no/butikker/coop-prix/coop-prix-heggenes-2103"}},{"type":"Feature","geometry":{"type":"Point","coordinates":[6.1537344,58.5356282]},"properties":{"name":"Coop Prix Helleland","address":"Sirdalsveien 38, 4376 Helleland","chain":"prix","samvirkelag":"COOP SØRVEST SA","source":"https://www.coop.no/butikker/coop-prix/coop-prix-helleland-2770"}},{"type":"Feature","geometry":{"type":"Point","coordinates":[15.3716712,67.2585483]},"properties":{"name":"Coop Prix Helligberget","address":"Kirkeveien 11, 8200 Fauske","chain":"prix","samvirkelag":"COOP NORDLAND SA","source":"https://www.coop.no/butikker/coop-prix/coop-prix-helligberget-1839"}},{"type":"Feature","geometry":{"type":"Point","coordinates":[5.872871,58.480965]},"properties":{"name":"Coop Prix Hellvik","address":"Trosavigveien 10, 4375 Hellvik","chain":"prix","samvirkelag":"COOP ØKONOM SA","source":"https://www.coop.no/butikker/coop-prix/coop-prix-hellvik-2669"}},{"type":"Feature","geometry":{"type":"Point","coordinates":[11.449,59.7187]},"properties":{"name":"Coop Prix Hemnes","address":"Hemnesveien 220, 1970 Hemnes","chain":"prix","samvirkelag":"COOP ØST SA","source":"https://www.coop.no/butikker/coop-prix/coop-prix-hemnes-1047"}},{"type":"Feature","geometry":{"type":"Point","coordinates":[13.6048,66.2241]},"properties":{"name":"Coop Prix Hemnesberget","address":"Torggata 3, 8640 Hemnesberget","chain":"prix","samvirkelag":"COOP MIDT-NORGE SA","source":"https://www.coop.no/butikker/coop-prix/coop-prix-hemnesberget-1672"}},{"type":"Feature","geometry":{"type":"Point","coordinates":[6.8507325,61.1835933]},"properties":{"name":"Coop Prix Hermansverk","address":"Sognefjordveien 42, 6863 Leikanger","chain":"prix","samvirkelag":"COOP NORDVEST SA","source":"https://www.coop.no/butikker/coop-prix/coop-prix-hermansverk-1431"}},{"type":"Feature","geometry":{"type":"Point","coordinates":[9.5607935,59.1033763]},"properties":{"name":"Coop Prix Herre","address":"Hellestvedtveien 1, 3965 Herre","chain":"prix","samvirkelag":"COOP SØRØST SA","source":"https://www.coop.no/butikker/coop-prix/coop-prix-herre-1195"}},{"type":"Feature","geometry":{"type":"Point","coordinates":[12.2821116,65.9802875]},"properties":{"name":"Coop Prix Herøy","address":"Herøyholmveien 1, 8850 Herøy","chain":"prix","samvirkelag":"COOP MIDT-NORGE SA","source":"https://www.coop.no/butikker/coop-prix/coop-prix-heroy-1687"}},{"type":"Feature","geometry":{"type":"Point","coordinates":[5.72421,58.9223]},"properties":{"name":"Coop Prix Hinna","address":"Boganesveien 2, 4020 Stavanger","chain":"prix","samvirkelag":"COOP ØKONOM SA","source":"https://www.coop.no/butikker/coop-prix/coop-prix-hinna-1308"}},{"type":"Feature","geometry":{"type":"Point","coordinates":[9.9123028,59.7751319]},"properties":{"name":"Coop Prix Hokksund","address":"Storgata 2, 3300 Hokksund","chain":"prix","samvirkelag":"COOP VESTVIKEN SA","source":"https://www.coop.no/butikker/coop-prix/coop-prix-hokksund-1164"}},{"type":"Feature","geometry":{"type":"Point","coordinates":[10.784205,59.826996]},"properties":{"name":"Coop Prix Holmlia","address":"Dyretråkket 31, 1251 Oslo","chain":"prix","samvirkelag":"COOP ØST SA","source":"https://www.coop.no/butikker/coop-prix/coop-prix-holmlia-2680"}},{"type":"Feature","geometry":{"type":"Point","coordinates":[8.0148702,63.4598862]},"properties":{"name":"Coop Prix Hopen","address":"Rådhusveien 1, 6570 Smøla","chain":"prix","samvirkelag":"COOP NORDVEST SA","source":"https://www.coop.no/butikker/coop-prix/coop-prix-hopen-1485"}},{"type":"Feature","geometry":{"type":"Point","coordinates":[6.5257023,61.9688945]},"properties":{"name":"Coop Prix Hornindal","address":"Grøddesvegen 2, 6763 Hornindal","chain":"prix","samvirkelag":"COOP NORDVEST SA","source":"https://www.coop.no/butikker/coop-prix/coop-prix-hornindal-1570"}},{"type":"Feature","geometry":{"type":"Point","coordinates":[10.2252674,63.105085]},"properties":{"name":"Coop Prix Hovin","address":"Krogstadvegen 6, 7236 Hovin","chain":"prix","samvirkelag":"COOP OPPDAL SA","source":"https://www.coop.no/butikker/coop-prix/coop-prix-hovin-1601"}},{"type":"Feature","geometry":{"type":"Point","coordinates":[6.496906,58.5250383]},"properties":{"name":"Coop Prix Hovsherad","address":"Hovsheradveien 738, 4462 Hovsherad","chain":"prix","samvirkelag":"COOP SØRVEST SA","source":"https://www.coop.no/butikker/coop-prix/coop-prix-hovsherad-1261"}},{"type":"Feature","geometry":{"type":"Point","coordinates":[14.5063,67.2768886]},"properties":{"name":"Coop Prix Hunstadmoen","address":"Knut Hamsunsvei 1, 8019 Bodø","chain":"prix","samvirkelag":"COOP NORDLAND SA","source":"https://www.coop.no/butikker/coop-prix/coop-prix-hunstadmoen-1878"}},{"type":"Feature","geometry":{"type":"Point","coordinates":[11.0702371,60.4344368]},"properties":{"name":"Coop Prix Hurdal","address":"Brustadvegen 3, 2090 Hurdal","chain":"prix","samvirkelag":"COOP ØST SA","source":"https://www.coop.no/butikker/coop-prix/coop-prix-hurdal-2638"}},{"type":"Feature","geometry":{"type":"Point","coordinates":[7.5300753,59.0959388]},"properties":{"name":"Coop Prix Hylestad","address":"Stovegen 4, 4748 Rysstad","chain":"prix","samvirkelag":"COOP SØRVEST SA","source":"https://www.coop.no/butikker/coop-prix/coop-prix-hylestad-1340"}},{"type":"Feature","geometry":{"type":"Point","coordinates":[8.091682,58.173682]},"properties":{"name":"Coop Prix Hånni","address":"Epleveien 1, 4635 Kristiansand","chain":"prix","samvirkelag":"OJFN AS","source":"https://www.coop.no/butikker/coop-prix/coop-prix-hanni-4726"}},{"type":"Feature","geometry":{"type":"Point","coordinates":[10.9289882,59.9443502]},"properties":{"name":"Coop Prix Høybråten","address":"Høybråtenveien 79, 1088 Oslo","chain":"prix","samvirkelag":"COOP ØST SA","source":"https://www.coop.no/butikker/coop-prix/coop-prix-hoybraten-2869"}},{"type":"Feature","geometry":{"type":"Point","coordinates":[9.987394,63.1138754]},"properties":{"name":"Coop Prix Hølonda","address":"Hølondvegen 3112, 7213 Gåsbakken","chain":"prix","samvirkelag":"COOP NORDVEST SA","source":"https://www.coop.no/butikker/coop-prix/coop-prix-holonda-2821"}},{"type":"Feature","geometry":{"type":"Point","coordinates":[12.2968194,64.625251]},"properties":{"name":"Coop Prix Høylandet","address":"Gammelåvegen 1, 7877 Høylandet","chain":"prix","samvirkelag":"COOP MIDT-NORGE SA","source":"https://www.coop.no/butikker/coop-prix/coop-prix-hoylandet-1604"}},{"type":"Feature","geometry":{"type":"Point","coordinates":[11.2216851,60.7744498]},"properties":{"name":"Coop Prix Ilseng. Innlandet","address":"Gamlevegen 25, 2344 Ilseng","chain":"prix","samvirkelag":"COOP INNLANDET SA","source":"https://www.coop.no/butikker/coop-prix/coop-prix-ilseng-innlandet-2790"}},{"type":"Feature","geometry":{"type":"Point","coordinates":[6.0178356,58.8950794]},"properties":{"name":"Coop Prix Høle","address":"Floen 15, 4308 Sandnes","chain":"prix","samvirkelag":"COOP SØRVEST SA","source":"https://www.coop.no/butikker/coop-prix/coop-prix-hole-2825"}},{"type":"Feature","geometry":{"type":"Point","coordinates":[14.0279787,67.0363509]},"properties":{"name":"Coop Prix Inndyr","address":"Inndyrsvågen 7, 8140 Inndyr","chain":"prix","samvirkelag":"COOP NORDLAND SA","source":"https://www.coop.no/butikker/coop-prix/coop-prix-inndyr-2720"}},{"type":"Feature","geometry":{"type":"Point","coordinates":[11.3023059,60.6322257]},"properties":{"name":"Coop Prix Innlandsporten","address":"Kolomoen 916, 2337 Tangen","chain":"prix","samvirkelag":"COOP INNLANDET SA","source":"https://www.coop.no/butikker/coop-prix/coop-prix-innlandsporten-2577"}},{"type":"Feature","geometry":{"type":"Point","coordinates":[6.6145527,61.8521936]},"properties":{"name":"Coop Prix Innvik","address":"Fjordvegen 3355, 6793 Innvik","chain":"prix","samvirkelag":"NORSK BUTIKKDRIFT AS","source":"https://www.coop.no/butikker/coop-prix/coop-prix-innvik-4051"}},{"type":"Feature","geometry":{"type":"Point","coordinates":[6.2523162,60.2765714]},"properties":{"name":"Coop Prix Jondal","address":"Jonavegen 5, 5627 Jondal","chain":"prix","samvirkelag":"COOP HORDALAND SA","source":"https://www.coop.no/butikker/coop-prix/coop-prix-jondal-1389"}},{"type":"Feature","geometry":{"type":"Point","coordinates":[10.7785282,59.9114059]},"properties":{"name":"Coop Prix Kampen","address":"Brinken 20, 0654 Oslo","chain":"prix","samvirkelag":"COOP ØST SA","source":"https://www.coop.no/butikker/coop-prix/coop-prix-kampen-2127"}},{"type":"Feature","geometry":{"type":"Point","coordinates":[10.3350607,63.3459976]},"properties":{"name":"Coop Prix Kattem","address":"Uståsen 2, 7082 Kattem","chain":"prix","samvirkelag":"COOP MIDT-NORGE SA","source":"https://www.coop.no/butikker/coop-prix/coop-prix-kattem-1819"}},{"type":"Feature","geometry":{"type":"Point","coordinates":[10.7836756,59.9630592]},"properties":{"name":"Coop Prix Kjelsås","address":"Midtoddveien 2, 0494 Oslo","chain":"prix","samvirkelag":"COOP ØST SA","source":"https://www.coop.no/butikker/coop-prix/coop-prix-kjelsas-1116"}},{"type":"Feature","geometry":{"type":"Point","coordinates":[27.3522,70.9454]},"properties":{"name":"Coop Prix Kjøllefjord","address":"Strandvegen, 9790 Kjøllefjord","chain":"prix","samvirkelag":"COOP FINNMARK SA","source":"https://www.coop.no/butikker/coop-prix/coop-prix-kjollefjord-1926"}},{"type":"Feature","geometry":{"type":"Point","coordinates":[16.3787866,68.0976123]},"properties":{"name":"Coop Prix Kjøpsvik","address":"F. L. Smiths vei 2, 8590 Kjøpsvik","chain":"prix","samvirkelag":"COOP NORD SA","source":"https://www.coop.no/butikker/coop-prix/coop-prix-kjopsvik-1858"}},{"type":"Feature","geometry":{"type":"Point","coordinates":[10.7420388,60.6493952]},"properties":{"name":"Coop Prix Kolbu","address":"Brustadvegen 2, 2847 Kolbu","chain":"prix","samvirkelag":"COOP INNLANDET SA","source":"https://www.coop.no/butikker/coop-prix/coop-prix-kolbu-2085"}},{"type":"Feature","geometry":{"type":"Point","coordinates":[11.0510585,61.570526]},"properties":{"name":"Coop Prix Koppang","address":"Kjemsjøveien 2, 2480 Koppang","chain":"prix","samvirkelag":"COOP INNLANDET SA","source":"https://www.coop.no/butikker/coop-prix/coop-prix-koppang-2020"}},{"type":"Feature","geometry":{"type":"Point","coordinates":[10.0999076,63.1605561]},"properties":{"name":"Coop Prix Korsvegen","address":"Hølondvegen 2051, 7212 Korsvegen","chain":"prix","samvirkelag":"COOP NORDVEST SA","source":"https://www.coop.no/butikker/coop-prix/coop-prix-korsvegen-2756"}},{"type":"Feature","geometry":{"type":"Point","coordinates":[9.5342483,63.4052533]},"properties":{"name":"Coop Prix Krokstadøra","address":"Krokstadøra 5, 7257 Snillfjord","chain":"prix","samvirkelag":"COOP NORDVEST SA","source":"https://www.coop.no/butikker/coop-prix/coop-prix-krokstadora-2836"}},{"type":"Feature","geometry":{"type":"Point","coordinates":[9.7847702,60.1245081]},"properties":{"name":"Coop Prix Krøderen","address":"Krøderfjordveien 397, 3535 Krøderen","chain":"prix","samvirkelag":"COOP ØST SA","source":"https://www.coop.no/butikker/coop-prix/coop-prix-kroderen-1024"}},{"type":"Feature","geometry":{"type":"Point","coordinates":[23.9804831,70.5019225]},"properties":{"name":"Coop Prix Kvalsund","address":"Rådhusvegen 4, 9620 Kvalsund","chain":"prix","samvirkelag":"COOP FINNMARK SA","source":"https://www.coop.no/butikker/coop-prix/coop-prix-kvalsund-2744"}},{"type":"Feature","geometry":{"type":"Point","coordinates":[9.276096,61.8167675]},"properties":{"name":"Coop Prix Lalm","address":"Kolbottvegen 2A, 2682 Lalm","chain":"prix","samvirkelag":"COOP OTTADALEN SA","source":"https://www.coop.no/butikker/coop-prix/coop-prix-lalm-2747"}},{"type":"Feature","geometry":{"type":"Point","coordinates":[6.93386,58.52218]},"properties":{"name":"Coop Prix Kvinlog","address":"Krågelandsvegen 12, 4473 Kvinlog","chain":"prix","samvirkelag":"COOP SØRVEST SA","source":"https://www.coop.no/butikker/coop-prix/coop-prix-kvinlog-2826"}},{"type":"Feature","geometry":{"type":"Point","coordinates":[5.40377,59.0621]},"properties":{"name":"Coop Prix Kvitsøy","address":"Melingsgaarden 27, 4180 Kvitsøy","chain":"prix","samvirkelag":"COOP ØKONOM SA","source":"https://www.coop.no/butikker/coop-prix/coop-prix-kvitsoy-1313"}},{"type":"Feature","geometry":{"type":"Point","coordinates":[10.2809,63.2314]},"properties":{"name":"Coop Prix Kvål","address":"Vassfjellvegen 6, 7228 Kvål","chain":"prix","samvirkelag":"COOP MIDT-NORGE SA","source":"https://www.coop.no/butikker/coop-prix/coop-prix-kval-1815"}},{"type":"Feature","geometry":{"type":"Point","coordinates":[5.1928616,59.2212288]},"properties":{"name":"Coop Prix Langåker","address":"Vestre Karmøyveg 534, 4274 Stol","chain":"prix","samvirkelag":"COOP SØRVEST SA","source":"https://www.coop.no/butikker/coop-prix/coop-prix-langaker-2947"}},{"type":"Feature","geometry":{"type":"Point","coordinates":[6.2684678,62.6408713]},"properties":{"name":"Coop Prix Lauvstad","address":"Velsvikvegen 5, 6133 Lauvstad","chain":"prix","samvirkelag":"COOP NORDVEST SA","source":"https://www.coop.no/butikker/coop-prix/coop-prix-lauvstad-2758"}},{"type":"Feature","geometry":{"type":"Point","coordinates":[13.6150469,68.1474088]},"properties":{"name":"Coop Prix Leknes","address":"Lekneskroken 3, 8370 Leknes","chain":"prix","samvirkelag":"NORSK BUTIKKDRIFT AS","source":"https://www.coop.no/butikker/coop-prix/coop-prix-leknes-4568"}},{"type":"Feature","geometry":{"type":"Point","coordinates":[9.8275338,63.503916]},"properties":{"name":"Coop Prix Lensvik","address":"Fv710 17-1, 7316 Lensvik","chain":"prix","samvirkelag":"COOP NORDVEST SA","source":"https://www.coop.no/butikker/coop-prix/coop-prix-lensvik-1762"}},{"type":"Feature","geometry":{"type":"Point","coordinates":[10.3006068,63.197811]},"properties":{"name":"Coop Prix Ler","address":"Lersvegen 195, 7234 Ler","chain":"prix","samvirkelag":"COOP OPPDAL SA","source":"https://www.coop.no/butikker/coop-prix/coop-prix-ler-1724"}},{"type":"Feature","geometry":{"type":"Point","coordinates":[11.2855679,63.7476173]},"properties":{"name":"Coop Prix Levangernesset","address":"Staupslia 23, 7603 Levanger","chain":"prix","samvirkelag":"COOP MIDT-NORGE SA","source":"https://www.coop.no/butikker/coop-prix/coop-prix-levangernesset-1740"}},{"type":"Feature","geometry":{"type":"Point","coordinates":[10.2821519,63.1522052]},"properties":{"name":"Coop Prix Lundamo","address":"Lundamovegen 461, 7232 Lundamo","chain":"prix","samvirkelag":"COOP OPPDAL SA","source":"https://www.coop.no/butikker/coop-prix/coop-prix-lundamo-1623"}},{"type":"Feature","geometry":{"type":"Point","coordinates":[10.635809,59.9212746]},"properties":{"name":"Coop Prix Lilleaker","address":"Lilleakerveien 32, 0284 Oslo","chain":"prix","samvirkelag":"COOP ØST SA","source":"https://www.coop.no/butikker/coop-prix/coop-prix-lilleaker-1101"}},{"type":"Feature","geometry":{"type":"Point","coordinates":[18.960074,69.651476]},"properties":{"name":"Coop Prix Kystens Hus","address":"Stortorget 1, 9008 Tromsø","chain":"prix","samvirkelag":"COOP NORD SA","source":"https://www.coop.no/butikker/coop-prix/coop-prix-kystens-hus-2555"}},{"type":"Feature","geometry":{"type":"Point","coordinates":[11.049029,59.957034]},"properties":{"name":"Coop Prix Lillestrøm Torv","address":"Teatergata 14, 2000 Lillestrøm","chain":"prix","samvirkelag":"NORSK BUTIKKDRIFT AS","source":"https://www.coop.no/butikker/coop-prix/coop-prix-lillestrom-torv-4669"}},{"type":"Feature","geometry":{"type":"Point","coordinates":[12.9349277,66.0658478]},"properties":{"name":"Coop Prix Leirfjord","address":"Leirfjordveien 220, 8890 Leirfjord","chain":"prix","samvirkelag":"COOP NESNA SA","source":"https://www.coop.no/butikker/coop-prix/coop-prix-leirfjord-1618"}},{"type":"Feature","geometry":{"type":"Point","coordinates":[9.870303,63.8849342]},"properties":{"name":"Coop Prix Lysøysund","address":"Roelbakken 2C, 7168 Lysøysund","chain":"prix","samvirkelag":"COOP FOSEN SA","source":"https://www.coop.no/butikker/coop-prix/coop-prix-lysoysund-1625"}},{"type":"Feature","geometry":{"type":"Point","coordinates":[15.9919,68.4108]},"properties":{"name":"Coop Prix Lødingen","address":"Rådhusvegen 23, 8410 Lødingen","chain":"prix","samvirkelag":"COOP NORDLAND SA","source":"https://www.coop.no/butikker/coop-prix/coop-prix-lodingen-1901"}},{"type":"Feature","geometry":{"type":"Point","coordinates":[5.330169,60.392113]},"properties":{"name":"Coop Prix Marken","address":"Marken 3, 5017 Bergen","chain":"prix","samvirkelag":"NORSK BUTIKKDRIFT AS","source":"https://www.coop.no/butikker/coop-prix/coop-prix-marken-4574"}},{"type":"Feature","geometry":{"type":"Point","coordinates":[20.5476086,69.5413788]},"properties":{"name":"Coop Prix Manndalen","address":"Sentrumsvegen 4, 9144 Samuelsberg","chain":"prix","samvirkelag":"COOP NORD SA","source":"https://www.coop.no/butikker/coop-prix/coop-prix-manndalen-1968"}},{"type":"Feature","geometry":{"type":"Point","coordinates":[11.2226127,64.0752386]},"properties":{"name":"Coop Prix Malm","address":"Riksvegen, 7790 Malm","chain":"prix","samvirkelag":"COOP MIDT-NORGE SA","source":"https://www.coop.no/butikker/coop-prix/coop-prix-malm-1628"}},{"type":"Feature","geometry":{"type":"Point","coordinates":[10.7834184,59.9599524]},"properties":{"name":"Coop Prix Marsveien","address":"Marsveien 2A, 0493 Oslo","chain":"prix","samvirkelag":"NORSK BUTIKKDRIFT AS","source":"https://www.coop.no/butikker/coop-prix/coop-prix-marsveien-4683"}},{"type":"Feature","geometry":{"type":"Point","coordinates":[6.2708128,62.6719966]},"properties":{"name":"Coop Prix Longva","address":"Kvernhusvegen 2, 6293 Longva","chain":"prix","samvirkelag":"COOP NORDVEST SA","source":"https://www.coop.no/butikker/coop-prix/coop-prix-longva-2750"}},{"type":"Feature","geometry":{"type":"Point","coordinates":[18.8904625,69.3320188]},"properties":{"name":"Coop Prix Meistervik","address":"Malangsveien, 9055 Mestervik","chain":"prix","samvirkelag":"COOP NORD SA","source":"https://www.coop.no/butikker/coop-prix/coop-prix-meistervik-1960"}},{"type":"Feature","geometry":{"type":"Point","coordinates":[9.7089027,63.0465375]},"properties":{"name":"Coop Prix Meldal","address":"Kvamsveien 603, 7336 Meldal","chain":"prix","samvirkelag":"COOP MELDAL SA","source":"https://www.coop.no/butikker/coop-prix/coop-prix-meldal-1631"}},{"type":"Feature","geometry":{"type":"Point","coordinates":[10.5622,59.9094]},"properties":{"name":"Coop Prix Løkeberg","address":"Kirkeveien 56, 1363 Høvik","chain":"prix","samvirkelag":"COOP VESTVIKEN SA","source":"https://www.coop.no/butikker/coop-prix/coop-prix-lokeberg-1133"}},{"type":"Feature","geometry":{"type":"Point","coordinates":[27.8499143,71.0405512]},"properties":{"name":"Coop Prix Mehamn","address":"Værveien 38, 9770 Mehamn","chain":"prix","samvirkelag":"COOP FINNMARK SA","source":"https://www.coop.no/butikker/coop-prix/coop-prix-mehamn-1938"}},{"type":"Feature","geometry":{"type":"Point","coordinates":[5.30427,60.3756]},"properties":{"name":"Coop Prix Melkeplassen","address":"Arne Abrahamsens vei 1, 5161 Laksevåg","chain":"prix","samvirkelag":"COOP HORDALAND SA","source":"https://www.coop.no/butikker/coop-prix/coop-prix-melkeplassen-1465"}},{"type":"Feature","geometry":{"type":"Point","coordinates":[6.6734739,62.6740528]},"properties":{"name":"Coop Prix Midsund","address":"Utsidevegen 57, 6475 Midsund","chain":"prix","samvirkelag":"COOP NORDVEST SA","source":"https://www.coop.no/butikker/coop-prix/coop-prix-midsund-1489"}},{"type":"Feature","geometry":{"type":"Point","coordinates":[14.1363,66.3099]},"properties":{"name":"Coop Prix Mo I Rana","address":"Fridtjof Nansens gate 15, 8622 Mo i Rana","chain":"prix","samvirkelag":"COOP MIDT-NORGE SA","source":"https://www.coop.no/butikker/coop-prix/coop-prix-mo-i-rana-1664"}},{"type":"Feature","geometry":{"type":"Point","coordinates":[5.7161676,58.9699138]},"properties":{"name":"Coop Prix Misjonsveien","address":"Misjonsveien 2, 4024 Stavanger","chain":"prix","samvirkelag":"COOP ØKONOM SA","source":"https://www.coop.no/butikker/coop-prix/coop-prix-misjonsveien-1297"}},{"type":"Feature","geometry":{"type":"Point","coordinates":[7.9594602,58.2595297]},"properties":{"name":"Coop Prix Moseidmoen","address":"Drivenesvegen 31, 4700 Vennesla","chain":"prix","samvirkelag":"COOP SØRVEST SA","source":"https://www.coop.no/butikker/coop-prix/coop-prix-moseidmoen-2796"}},{"type":"Feature","geometry":{"type":"Point","coordinates":[14.3693,67.27929]},"properties":{"name":"Coop Prix Moloveien","address":"Moloveien 2, 8003 Bodø","chain":"prix","samvirkelag":"COOP NORDLAND SA","source":"https://www.coop.no/butikker/coop-prix/coop-prix-moloveien-2517"}},{"type":"Feature","geometry":{"type":"Point","coordinates":[18.9500514,69.659586]},"properties":{"name":"Coop Prix Myreng Tromsø","address":"Myrengvegen 65, 9011 Tromsø","chain":"prix","samvirkelag":"COOP NORD SA","source":"https://www.coop.no/butikker/coop-prix/coop-prix-myreng-tromso-2764"}},{"type":"Feature","geometry":{"type":"Point","coordinates":[7.443381,62.5338401]},"properties":{"name":"Coop Prix Måndalen","address":"Sørsidevegen 1729, 6386 Måndalen","chain":"prix","samvirkelag":"COOP NORDVEST SA","source":"https://www.coop.no/butikker/coop-prix/coop-prix-mandalen-1501"}},{"type":"Feature","geometry":{"type":"Point","coordinates":[11.5204,64.4702]},"properties":{"name":"Coop Prix Namsos","address":"Namdalsvegen 13, 7800 Namsos","chain":"prix","samvirkelag":"COOP MIDT-NORGE SA","source":"https://www.coop.no/butikker/coop-prix/coop-prix-namsos-1679"}},{"type":"Feature","geometry":{"type":"Point","coordinates":[11.2225209,64.2233757]},"properties":{"name":"Coop Prix Namdalseid","address":"Namsosvegen 2899, 7750 Namdalseid","chain":"prix","samvirkelag":"COOP MIDT-NORGE SA","source":"https://www.coop.no/butikker/coop-prix/coop-prix-namdalseid-1634"}},{"type":"Feature","geometry":{"type":"Point","coordinates":[13.1591467,64.9292956]},"properties":{"name":"Coop Prix Namsskogan","address":"R. C. Hansens Vei 1, 7890 Namsskogan","chain":"prix","samvirkelag":"COOP MIDT-NORGE SA","source":"https://www.coop.no/butikker/coop-prix/coop-prix-namsskogan-2781"}},{"type":"Feature","geometry":{"type":"Point","coordinates":[9.4375082,60.1351702]},"properties":{"name":"Coop Prix Nedre Eggedal","address":"Eggedalsveien 86, 3358 Nedre Eggedal","chain":"prix","samvirkelag":"COOP ØST SA","source":"https://www.coop.no/butikker/coop-prix/coop-prix-nedre-eggedal-1149"}},{"type":"Feature","geometry":{"type":"Point","coordinates":[13.0231,66.1997]},"properties":{"name":"Coop Prix Nesna","address":"Idrettsvegen 13, 8700 Nesna","chain":"prix","samvirkelag":"COOP NESNA SA","source":"https://www.coop.no/butikker/coop-prix/coop-prix-nesna-1639"}},{"type":"Feature","geometry":{"type":"Point","coordinates":[6.14595,60.3723]},"properties":{"name":"Coop Prix Norheimsund","address":"Grova 16, 5600 Norheimsund","chain":"prix","samvirkelag":"COOP HORDALAND SA","source":"https://www.coop.no/butikker/coop-prix/coop-prix-norheimsund-1445"}},{"type":"Feature","geometry":{"type":"Point","coordinates":[10.5265768,63.4216035]},"properties":{"name":"Coop Prix Olderdalen","address":"Sverre Svendsens veg 8, 7056 Ranheim","chain":"prix","samvirkelag":"COOP MIDT-NORGE SA","source":"https://www.coop.no/butikker/coop-prix/coop-prix-olderdalen-1808"}},{"type":"Feature","geometry":{"type":"Point","coordinates":[6.0555365,58.8335458]},"properties":{"name":"Coop Prix Oltedal","address":"Bygdaveien 186, 4333 Oltedal","chain":"prix","samvirkelag":"COOP SØRVEST SA","source":"https://www.coop.no/butikker/coop-prix/coop-prix-oltedal-1253"}},{"type":"Feature","geometry":{"type":"Point","coordinates":[10.4469403,63.4331077]},"properties":{"name":"Coop Prix Persaunet","address":"Tessems veg 2, 7045 Trondheim","chain":"prix","samvirkelag":"PERSAUNET MAT AS","source":"https://www.coop.no/butikker/coop-prix/coop-prix-persaunet-4705"}},{"type":"Feature","geometry":{"type":"Point","coordinates":[10.5124023,64.2962846]},"properties":{"name":"Coop Prix Osen","address":"Steinsdalsveien 29, 7740 Steinsdalen","chain":"prix","samvirkelag":"COOP MIDT-NORGE SA","source":"https://www.coop.no/butikker/coop-prix/coop-prix-osen-2767"}},{"type":"Feature","geometry":{"type":"Point","coordinates":[10.753893,59.911817]},"properties":{"name":"Coop Prix Postgirobygget","address":"Biskop Gunnerus gate 14, 0155 Oslo","chain":"prix","samvirkelag":"TIRTHES MAT AS","source":"https://www.coop.no/butikker/coop-prix/coop-prix-postgirobygget-4306"}},{"type":"Feature","geometry":{"type":"Point","coordinates":[13.083905,67.9388509]},"properties":{"name":"Coop Prix Reine","address":"Moskenesveien 394, 8390 Reine","chain":"prix","samvirkelag":"COOP NORD SA","source":"https://www.coop.no/butikker/coop-prix/coop-prix-reine-1891"}},{"type":"Feature","geometry":{"type":"Point","coordinates":[9.234928,58.7205]},"properties":{"name":"Coop Prix Risør","address":"Strandgata 3, 4950 Risør","chain":"prix","samvirkelag":"NORSK BUTIKKDRIFT AS","source":"https://www.coop.no/butikker/coop-prix/coop-prix-risor-4512"}},{"type":"Feature","geometry":{"type":"Point","coordinates":[5.3128637,60.4659234]},"properties":{"name":"Coop Prix Prestestien","address":"Myrdalskogen 2A, 5118 Ulset","chain":"prix","samvirkelag":"COOP HORDALAND SA","source":"https://www.coop.no/butikker/coop-prix/coop-prix-prestestien-1459"}},{"type":"Feature","geometry":{"type":"Point","coordinates":[5.2862367,59.4081603]},"properties":{"name":"Coop Prix Rogalandsgate","address":"Rogalandgata 52, 5531 Haugesund","chain":"prix","samvirkelag":"COOP SØRVEST SA","source":"https://www.coop.no/butikker/coop-prix/coop-prix-rogalandsgate-1234"}},{"type":"Feature","geometry":{"type":"Point","coordinates":[10.372,63.3995]},"properties":{"name":"Coop Prix Rognheim","address":"Bøckmans veg 76, 7022 Trondheim","chain":"prix","samvirkelag":"COOP MIDT-NORGE SA","source":"https://www.coop.no/butikker/coop-prix/coop-prix-rognheim-1803"}},{"type":"Feature","geometry":{"type":"Point","coordinates":[15.3147916,66.9810586]},"properties":{"name":"Coop Prix Røkland","address":"E6, 8255 Røkland","chain":"prix","samvirkelag":"COOP NORDLAND SA","source":"https://www.coop.no/butikker/coop-prix/coop-prix-rokland-2421"}},{"type":"Feature","geometry":{"type":"Point","coordinates":[6.8193696,59.8323284]},"properties":{"name":"Coop Prix Røldal","address":"Kyrkjevegen 27, 5760 Røldal","chain":"prix","samvirkelag":"COOP SØRVEST SA","source":"https://www.coop.no/butikker/coop-prix/coop-prix-roldal-2741"}},{"type":"Feature","geometry":{"type":"Point","coordinates":[14.6024,67.2283]},"properties":{"name":"Coop Prix Saltstraumen","address":"Straumøyveien 5, 8056 Saltstraumen","chain":"prix","samvirkelag":"COOP NORDLAND SA","source":"https://www.coop.no/butikker/coop-prix/coop-prix-saltstraumen-1879"}},{"type":"Feature","geometry":{"type":"Point","coordinates":[6.0043593,59.9877571]},"properties":{"name":"Coop Prix Rosendal","address":"Skålagato 2, 5470 Rosendal","chain":"prix","samvirkelag":"NORSK BUTIKKDRIFT AS","source":"https://www.coop.no/butikker/coop-prix/coop-prix-rosendal-4346"}},{"type":"Feature","geometry":{"type":"Point","coordinates":[5.8683383,59.5417838]},"properties":{"name":"Coop Prix Sandeid","address":"Sandeidsjøen 8, 5585 Sandeid","chain":"prix","samvirkelag":"SANDEID HANDELSLAG SA","source":"https://www.coop.no/butikker/coop-prix/coop-prix-sandeid-1276"}},{"type":"Feature","geometry":{"type":"Point","coordinates":[11.3341063,63.9583949]},"properties":{"name":"Coop Prix Sandvollan","address":"Nessetvegen 2, 7670 Inderøy","chain":"prix","samvirkelag":"COOP MIDT-NORGE SA","source":"https://www.coop.no/butikker/coop-prix/coop-prix-sandvollan-1702"}},{"type":"Feature","geometry":{"type":"Point","coordinates":[5.3455024,62.0450477]},"properties":{"name":"Coop Prix Selje","address":"Selje, 6740 Selje","chain":"prix","samvirkelag":"COOP NORDVEST SA","source":"https://www.coop.no/butikker/coop-prix/coop-prix-selje-1566"}},{"type":"Feature","geometry":{"type":"Point","coordinates":[10.654471,62.942407]},"properties":{"name":"Coop Prix Singsås","address":"Fv30, 7387 Singsås","chain":"prix","samvirkelag":"COOP OPPDAL SA","source":"https://www.coop.no/butikker/coop-prix/coop-prix-singsas-2751"}},{"type":"Feature","geometry":{"type":"Point","coordinates":[10.3951555,63.3687592]},"properties":{"name":"Coop Prix Sjetnemarka","address":"Parallellen 23, 7081 Sjetnemarka","chain":"prix","samvirkelag":"COOP MIDT-NORGE SA","source":"https://www.coop.no/butikker/coop-prix/coop-prix-sjetnemarka-1816"}},{"type":"Feature","geometry":{"type":"Point","coordinates":[6.6607972,58.4162264]},"properties":{"name":"Coop Prix Sira","address":"Prestevegen 3, 4438 Sira","chain":"prix","samvirkelag":"COOP SØRVEST SA","source":"https://www.coop.no/butikker/coop-prix/coop-prix-sira-1262"}},{"type":"Feature","geometry":{"type":"Point","coordinates":[6.8122789,62.4827662]},"properties":{"name":"Coop Prix Sjøholt","address":"Sjøholtvegen 9, 6240 Ørskog","chain":"prix","samvirkelag":"COOP NORDVEST SA","source":"https://www.coop.no/butikker/coop-prix/coop-prix-sjoholt-1491"}},{"type":"Feature","geometry":{"type":"Point","coordinates":[10.053857,63.2510451]},"properties":{"name":"Coop Prix Skaun","address":"Skaunavegen 920, 7357 Skaun","chain":"prix","samvirkelag":"COOP MIDT-NORGE SA","source":"https://www.coop.no/butikker/coop-prix/coop-prix-skaun-2795"}},{"type":"Feature","geometry":{"type":"Point","coordinates":[5.6208247,59.4287726]},"properties":{"name":"Coop Prix Skjoldastraumen","address":"Skjoldastraumsvegen 1131, 5567 Skjoldastraumen","chain":"prix","samvirkelag":"COOP SØRVEST SA","source":"https://www.coop.no/butikker/coop-prix/coop-prix-skjoldastraumen-1241"}},{"type":"Feature","geometry":{"type":"Point","coordinates":[6.4817293,61.5730961]},"properties":{"name":"Coop Prix Skei","address":"Vikavegen 9, 6843 Skei","chain":"prix","samvirkelag":"COOP JØLSTER SA","source":"https://www.coop.no/butikker/coop-prix/coop-prix-skei-2812"}},{"type":"Feature","geometry":{"type":"Point","coordinates":[10.9217,60.0095]},"properties":{"name":"Coop Prix Slattum","address":"Slattum Terasse 2, 1480 Slattum","chain":"prix","samvirkelag":"COOP ØST SA","source":"https://www.coop.no/butikker/coop-prix/coop-prix-slattum-1111"}},{"type":"Feature","geometry":{"type":"Point","coordinates":[12.38403,64.2464759]},"properties":{"name":"Coop Prix Snåsa","address":"Øverbygdvegen 8, 7760 Snåsa","chain":"prix","samvirkelag":"COOP MIDT-NORGE SA","source":"https://www.coop.no/butikker/coop-prix/coop-prix-snasa-1692"}},{"type":"Feature","geometry":{"type":"Point","coordinates":[10.3881,60.8804]},"properties":{"name":"Coop Prix Snertingdal","address":"Snertingdalsvegen 1722, 2838 Snertingdalen","chain":"prix","samvirkelag":"COOP INNLANDET SA","source":"https://www.coop.no/butikker/coop-prix/coop-prix-snertingdal-2445"}},{"type":"Feature","geometry":{"type":"Point","coordinates":[9.525317,59.2150998]},"properties":{"name":"Coop Prix Skotfoss","address":"Skotfossveien 242, 3720 Skotfoss","chain":"prix","samvirkelag":"COOP SØRØST SA","source":"https://www.coop.no/butikker/coop-prix/coop-prix-skotfoss-1203"}},{"type":"Feature","geometry":{"type":"Point","coordinates":[10.0189308,63.5085588]},"properties":{"name":"Coop Prix Stadsbygd","address":"Valsåmyra 4, 7105 Stadsbygd","chain":"prix","samvirkelag":"COOP FOSEN SA","source":"https://www.coop.no/butikker/coop-prix/coop-prix-stadsbygd-1833"}},{"type":"Feature","geometry":{"type":"Point","coordinates":[10.226688,59.132628]},"properties":{"name":"Coop Prix Sperretorvet","address":"Storgata 23, 3210 Sandefjord","chain":"prix","samvirkelag":"NORSK BUTIKKDRIFT AS","source":"https://www.coop.no/butikker/coop-prix/coop-prix-sperretorvet-4700"}},{"type":"Feature","geometry":{"type":"Point","coordinates":[8.0138172,58.1536709]},"properties":{"name":"Coop Prix St. Olavsvei","address":"Sankt Olavs vei 15, 4632 Kristiansand","chain":"prix","samvirkelag":"COOP SØRVEST SA","source":"https://www.coop.no/butikker/coop-prix/coop-prix-st-olavsvei-1342"}},{"type":"Feature","geometry":{"type":"Point","coordinates":[13.84562,68.1221]},"properties":{"name":"Coop Prix Stamsund","address":"J. M. Johansens Vei 19, 8340 Stamsund","chain":"prix","samvirkelag":"COOP NORD SA","source":"https://www.coop.no/butikker/coop-prix/coop-prix-stamsund-2571"}},{"type":"Feature","geometry":{"type":"Point","coordinates":[10.9162,63.4667]},"properties":{"name":"Coop Prix Stjørdal","address":"Værnesgata 7 A, 7500 Stjørdal","chain":"prix","samvirkelag":"COOP MIDT-NORGE SA","source":"https://www.coop.no/butikker/coop-prix/coop-prix-stjordal-1710"}},{"type":"Feature","geometry":{"type":"Point","coordinates":[15.015465,67.775513]},"properties":{"name":"Coop Prix Steigen","address":"Myklebostadveien 2, 8283 Leinesfjord","chain":"prix","samvirkelag":"COOP NORDLAND SA","source":"https://www.coop.no/butikker/coop-prix/coop-prix-steigen-1847"}},{"type":"Feature","geometry":{"type":"Point","coordinates":[14.9119,68.5685]},"properties":{"name":"Coop Prix Stokmarknes","address":"Markedsgata 3, 8450 Stokmarknes","chain":"prix","samvirkelag":"COOP NORDLAND SA","source":"https://www.coop.no/butikker/coop-prix/coop-prix-stokmarknes-2426"}},{"type":"Feature","geometry":{"type":"Point","coordinates":[6.98593,62.3818]},"properties":{"name":"Coop Prix Stordal","address":"Strandagata 35, 6250 Stordal","chain":"prix","samvirkelag":"COOP NORDVEST SA","source":"https://www.coop.no/butikker/coop-prix/coop-prix-stordal-1508"}},{"type":"Feature","geometry":{"type":"Point","coordinates":[14.5283915,66.4044607]},"properties":{"name":"Coop Prix Storforshei","address":"Malmgata 27, 8630 Storforshei","chain":"prix","samvirkelag":"COOP MIDT-NORGE SA","source":"https://www.coop.no/butikker/coop-prix/coop-prix-storforshei-1670"}},{"type":"Feature","geometry":{"type":"Point","coordinates":[14.38668,67.28483]},"properties":{"name":"Coop Prix Storgata","address":"Storgaten 48, 8006 Bodø","chain":"prix","samvirkelag":"COOP NORDLAND SA","source":"https://www.coop.no/butikker/coop-prix/coop-prix-storgata-1866"}},{"type":"Feature","geometry":{"type":"Point","coordinates":[5.7533647,58.9642819]},"properties":{"name":"Coop Prix Storhaug","address":"Asbjørn Klosters gate 39, 4015 Stavanger","chain":"prix","samvirkelag":"COOP ØKONOM SA","source":"https://www.coop.no/butikker/coop-prix/coop-prix-storhaug-1300"}},{"type":"Feature","geometry":{"type":"Point","coordinates":[6.0115655,60.2608455]},"properties":{"name":"Coop Prix Strandebarm","address":"Tangeråshagen 5, 5630 Strandebarm","chain":"prix","samvirkelag":"COOP HORDALAND SA","source":"https://www.coop.no/butikker/coop-prix/coop-prix-strandebarm-2739"}},{"type":"Feature","geometry":{"type":"Point","coordinates":[23.6862,70.6631]},"properties":{"name":"Coop Prix Strandgata Hammerfest","address":"Strandgata 8-14, 9600 Hammerfest","chain":"prix","samvirkelag":"COOP HAMMERFEST SA","source":"https://www.coop.no/butikker/coop-prix/coop-prix-strandgata-hammerfest-1920"}},{"type":"Feature","geometry":{"type":"Point","coordinates":[18.9427127,69.6417658]},"properties":{"name":"Coop Prix Strandkanten. Nord","address":"Hjalmar Johansens gate 27, 9007 Tromsø","chain":"prix","samvirkelag":"COOP NORD SA","source":"https://www.coop.no/butikker/coop-prix/coop-prix-strandkanten-nord-2596"}},{"type":"Feature","geometry":{"type":"Point","coordinates":[14.4739,68.6884]},"properties":{"name":"Coop Prix Straume","address":"Veaveien, 8475 Straumsjøen","chain":"prix","samvirkelag":"COOP NORDLAND SA","source":"https://www.coop.no/butikker/coop-prix/coop-prix-straume-1902"}},{"type":"Feature","geometry":{"type":"Point","coordinates":[15.5930021,67.3464965]},"properties":{"name":"Coop Prix Straumen","address":"Sentrum 2, 8226 Straumen","chain":"prix","samvirkelag":"COOP NORDLAND SA","source":"https://www.coop.no/butikker/coop-prix/coop-prix-straumen-1840"}},{"type":"Feature","geometry":{"type":"Point","coordinates":[16.070945,67.1338931]},"properties":{"name":"Coop Prix Sulitjelma","address":"Sandnes, 8230 Sulitjelma","chain":"prix","samvirkelag":"COOP NORDLAND SA","source":"https://www.coop.no/butikker/coop-prix/coop-prix-sulitjelma-2623"}},{"type":"Feature","geometry":{"type":"Point","coordinates":[6.5153018,59.4915989]},"properties":{"name":"Coop Prix Suldal","address":"Suldalsvegen 1621, 4240 Suldalsosen","chain":"prix","samvirkelag":"COOP ØKONOM SA","source":"https://www.coop.no/butikker/coop-prix/coop-prix-suldal-2797"}},{"type":"Feature","geometry":{"type":"Point","coordinates":[5.2907344,61.7686941]},"properties":{"name":"Coop Prix Svelgen","address":"Granden, 6723 Svelgen","chain":"prix","samvirkelag":"COOP NORDVEST SA","source":"https://www.coop.no/butikker/coop-prix/coop-prix-svelgen-1384"}},{"type":"Feature","geometry":{"type":"Point","coordinates":[10.3526998,63.4161442]},"properties":{"name":"Coop Prix Sverresborg","address":"Gamle Oslovei 8, 7020 Trondheim","chain":"prix","samvirkelag":"COOP MIDT-NORGE SA","source":"https://www.coop.no/butikker/coop-prix/coop-prix-sverresborg-1804"}},{"type":"Feature","geometry":{"type":"Point","coordinates":[5.7388769,62.0892483]},"properties":{"name":"Coop Prix Syvde","address":"Syvdefjordvegen, 6140 Syvde","chain":"prix","samvirkelag":"COOP NORDVEST SA","source":"https://www.coop.no/butikker/coop-prix/coop-prix-syvde-2759"}},{"type":"Feature","geometry":{"type":"Point","coordinates":[9.939824,61.5557212]},"properties":{"name":"Coop Prix Sør-Fron","address":"Meierivegen 7, 2647 Sør-fron","chain":"prix","samvirkelag":"COOP INNLANDET SA","source":"https://www.coop.no/butikker/coop-prix/coop-prix-sor-fron-2117"}},{"type":"Feature","geometry":{"type":"Point","coordinates":[10.7552321,59.9020239]},"properties":{"name":"Coop Prix Sørenga","address":"Sørengakaia 82, 0194 Oslo","chain":"prix","samvirkelag":"COOP ØST SA","source":"https://www.coop.no/butikker/coop-prix/coop-prix-sorenga-2515"}},{"type":"Feature","geometry":{"type":"Point","coordinates":[6.2786276,62.548497]},"properties":{"name":"Coop Prix Søvik","address":"Hamnsundvegen 226-228, 6280 Søvik","chain":"prix","samvirkelag":"COOP NORDVEST SA","source":"https://www.coop.no/butikker/coop-prix/coop-prix-sovik-1518"}},{"type":"Feature","geometry":{"type":"Point","coordinates":[22.9511906,70.0410015]},"properties":{"name":"Coop Prix Talvik","address":"Handelstranda 2, 9540 Talvik","chain":"prix","samvirkelag":"COOP FINNMARK SA","source":"https://www.coop.no/butikker/coop-prix/coop-prix-talvik-2734"}},{"type":"Feature","geometry":{"type":"Point","coordinates":[17.8079426,68.7480956]},"properties":{"name":"Coop Prix Tennevoll","address":"Bakkan 1, 9357 Tennevoll","chain":"prix","samvirkelag":"COOP NORD SA","source":"https://www.coop.no/butikker/coop-prix/coop-prix-tennevoll-2595"}},{"type":"Feature","geometry":{"type":"Point","coordinates":[12.3756963,65.0890177]},"properties":{"name":"Coop Prix Terråk","address":"Sørfjordveien 2B, 7980 Terråk","chain":"prix","samvirkelag":"COOP NORDLAND SA","source":"https://www.coop.no/butikker/coop-prix/coop-prix-terrak-2843"}},{"type":"Feature","geometry":{"type":"Point","coordinates":[10.9984755,62.4095844]},"properties":{"name":"Coop Prix Tolga","address":"Brugata 40, 2540 Tolga","chain":"prix","samvirkelag":"COOP OPPDAL SA","source":"https://www.coop.no/butikker/coop-prix/coop-prix-tolga-1648"}},{"type":"Feature","geometry":{"type":"Point","coordinates":[10.1515217,59.0628241]},"properties":{"name":"Coop Prix Tjølling","address":"Stasjonsveien 1, 3280 Tjodalyng","chain":"prix","samvirkelag":"NORSK BUTIKKDRIFT AS","source":"https://www.coop.no/butikker/coop-prix/coop-prix-tjolling-4778"}},{"type":"Feature","geometry":{"type":"Point","coordinates":[7.0297829,62.8426386]},"properties":{"name":"Coop Prix Tornes","address":"Tornesvegen 589, 6443 Tornes i Romsdal","chain":"prix","samvirkelag":"COOP NORDVEST SA","source":"https://www.coop.no/butikker/coop-prix/coop-prix-tornes-2805"}},{"type":"Feature","geometry":{"type":"Point","coordinates":[11.0489139,59.1848031]},"properties":{"name":"Coop Prix Torsnes","address":"Torsnesveien 207, 1634 Gamle Fredrikstad","chain":"prix","samvirkelag":"COOP ØST SA","source":"https://www.coop.no/butikker/coop-prix/coop-prix-torsnes-1061"}},{"type":"Feature","geometry":{"type":"Point","coordinates":[10.672582,60.801525]},"properties":{"name":"Coop Prix Tranberg","address":"Prost Bloms gate 28, 2819 Gjøvik","chain":"prix","samvirkelag":"NORSK BUTIKKDRIFT AS","source":"https://www.coop.no/butikker/coop-prix/coop-prix-tranberg-4952"}},{"type":"Feature","geometry":{"type":"Point","coordinates":[10.3002349,61.3145742]},"properties":{"name":"Coop Prix Tretten","address":"Kongsvegen 1566, 2635 Tretten","chain":"prix","samvirkelag":"COOP INNLANDET SA","source":"https://www.coop.no/butikker/coop-prix/coop-prix-tretten-2046"}},{"type":"Feature","geometry":{"type":"Point","coordinates":[8.5232,59.019]},"properties":{"name":"Coop Prix Treungen","address":"Treungvegen 378-380, 3855 Treungen","chain":"prix","samvirkelag":"COOP SØRVEST SA","source":"https://www.coop.no/butikker/coop-prix/coop-prix-treungen-1335"}},{"type":"Feature","geometry":{"type":"Point","coordinates":[8.042593,63.206692]},"properties":{"name":"Coop Prix Tustna","address":"Tømmervågvegen 3281, 6590 Tustna","chain":"prix","samvirkelag":"COOP NORDVEST SA","source":"https://www.coop.no/butikker/coop-prix/coop-prix-tustna-1488"}},{"type":"Feature","geometry":{"type":"Point","coordinates":[13.3873278,65.5371958]},"properties":{"name":"Coop Prix Trofors","address":"Troforsvegen 14, 8682 Trofors","chain":"prix","samvirkelag":"COOP NORDLAND SA","source":"https://www.coop.no/butikker/coop-prix/coop-prix-trofors-1589"}},{"type":"Feature","geometry":{"type":"Point","coordinates":[11.6578,63.0446]},"properties":{"name":"Coop Prix Tydal","address":"Tydalsvegen, 7590 Tydal","chain":"prix","samvirkelag":"COOP MIDT-NORGE SA","source":"https://www.coop.no/butikker/coop-prix/coop-prix-tydal-1733"}},{"type":"Feature","geometry":{"type":"Point","coordinates":[10.75021127,59.9499967]},"properties":{"name":"Coop Prix Tåsen","address":"Nils Lauritssøns vei 57, 0870 Oslo","chain":"prix","samvirkelag":"NORSK BUTIKKDRIFT AS","source":"https://www.coop.no/butikker/coop-prix/coop-prix-tasen-4238"}},{"type":"Feature","geometry":{"type":"Point","coordinates":[8.1064938,58.2168298]},"properties":{"name":"Coop Prix Tveit","address":"Topdalsveien 167, 4658 Tveit","chain":"prix","samvirkelag":"COOP SØRVEST SA","source":"https://www.coop.no/butikker/coop-prix/coop-prix-tveit-1349"}},{"type":"Feature","geometry":{"type":"Point","coordinates":[10.7409115,59.9220315]},"properties":{"name":"Coop Prix Ullevålsveien","address":"Pilestredet Park 12 A, 0176 Oslo","chain":"prix","samvirkelag":"NORSK BUTIKKDRIFT AS","source":"https://www.coop.no/butikker/coop-prix/coop-prix-ullevalsveien-4676"}},{"type":"Feature","geometry":{"type":"Point","coordinates":[6.91545,60.56854]},"properties":{"name":"Coop Prix Ulvik","address":"Skeievegen 15, 5730 Ulvik","chain":"prix","samvirkelag":"COOP HORDALAND SA","source":"https://www.coop.no/butikker/coop-prix/coop-prix-ulvik-1405"}},{"type":"Feature","geometry":{"type":"Point","coordinates":[5.7731431,58.6822472]},"properties":{"name":"Coop Prix Undheim Handelslag","address":"Kjelvevegen 1, 4342 Undheim","chain":"prix","samvirkelag":"UNDHEIM HANDELSLAG SA","source":"https://www.coop.no/butikker/coop-prix/coop-prix-undheim-handelslag-1285"}},{"type":"Feature","geometry":{"type":"Point","coordinates":[5.7433,60.4774]},"properties":{"name":"Coop Prix Vaksdal","address":"Botnavegen 10, 5725 Vaksdal","chain":"prix","samvirkelag":"COOP HORDALAND SA","source":"https://www.coop.no/butikker/coop-prix/coop-prix-vaksdal-1410"}},{"type":"Feature","geometry":{"type":"Point","coordinates":[7.534574,59.2120279]},"properties":{"name":"Coop Prix Valle","address":"Nordibøvegen 151, 4747 Valle","chain":"prix","samvirkelag":"COOP SØRVEST SA","source":"https://www.coop.no/butikker/coop-prix/coop-prix-valle-1328"}},{"type":"Feature","geometry":{"type":"Point","coordinates":[15.1842977,67.2999716]},"properties":{"name":"Coop Prix Valnesfjord","address":"Fv530, 8215 Valnesfjord","chain":"prix","samvirkelag":"COOP NORDLAND SA","source":"https://www.coop.no/butikker/coop-prix/coop-prix-valnesfjord-1843"}},{"type":"Feature","geometry":{"type":"Point","coordinates":[10.2223968,63.5534534]},"properties":{"name":"Coop Prix Vanvikan","address":"Havnegata, 7125 Vanvikan","chain":"prix","samvirkelag":"COOP MIDT-NORGE SA","source":"https://www.coop.no/butikker/coop-prix/coop-prix-vanvikan-1620"}},{"type":"Feature","geometry":{"type":"Point","coordinates":[5.22619,59.293]},"properties":{"name":"Coop Prix Vedavågen","address":"Austreveavei 217, 4276 Vedavågen","chain":"prix","samvirkelag":"COOP SØRVEST SA","source":"https://www.coop.no/butikker/coop-prix/coop-prix-vedavagen-2128"}},{"type":"Feature","geometry":{"type":"Point","coordinates":[28.5535109,70.1731992]},"properties":{"name":"Coop Prix Varangerbotn","address":"Dalveloudda, 9840 Varangerbotn","chain":"prix","samvirkelag":"COOP FINNMARK SA","source":"https://www.coop.no/butikker/coop-prix/coop-prix-varangerbotn-2745"}},{"type":"Feature","geometry":{"type":"Point","coordinates":[11.9601578,65.6762855]},"properties":{"name":"Coop Prix Vega","address":"Åsveien 2, 8982 Vega","chain":"prix","samvirkelag":"COOP NORDLAND SA","source":"https://www.coop.no/butikker/coop-prix/coop-prix-vega-1737"}},{"type":"Feature","geometry":{"type":"Point","coordinates":[12.5487731,65.4031478]},"properties":{"name":"Coop Prix Velfjord","address":"Tosenveien, 8960 Hommelstø","chain":"prix","samvirkelag":"COOP NORDLAND SA","source":"https://www.coop.no/butikker/coop-prix/coop-prix-velfjord-1578"}},{"type":"Feature","geometry":{"type":"Point","coordinates":[10.1445,61.2018]},"properties":{"name":"Coop Prix Vestre Gausdal","address":"Jordmorveien 11, 2653 Vestre Gausdal","chain":"prix","samvirkelag":"COOP INNLANDET SA","source":"https://www.coop.no/butikker/coop-prix/coop-prix-vestre-gausdal-2476"}},{"type":"Feature","geometry":{"type":"Point","coordinates":[8.9812884,61.0876509]},"properties":{"name":"Coop Prix Vestre Slidre","address":"Slidrevegen 14, 2966 Slidre","chain":"prix","samvirkelag":"COOP ØST SA","source":"https://www.coop.no/butikker/coop-prix/coop-prix-vestre-slidre-2816"}},{"type":"Feature","geometry":{"type":"Point","coordinates":[12.1668,65.31199]},"properties":{"name":"Coop Prix Vik I Helgeland","address":"Sentrumsveien 6, 8920 Sømna","chain":"prix","samvirkelag":"COOP NORDLAND SA","source":"https://www.coop.no/butikker/coop-prix/coop-prix-vik-i-helgeland-1727"}},{"type":"Feature","geometry":{"type":"Point","coordinates":[5.9040861,59.4978916]},"properties":{"name":"Coop Prix Vikedal","address":"Kyrkjehølsvegen 5, 5583 Vikedal","chain":"prix","samvirkelag":"COOP SØRVEST SA","source":"https://www.coop.no/butikker/coop-prix/coop-prix-vikedal-1245"}},{"type":"Feature","geometry":{"type":"Point","coordinates":[6.426706,60.629226]},"properties":{"name":"Coop Prix Voss","address":"Uttrågata 36, 5700 Vossevangen","chain":"prix","samvirkelag":"NORSK BUTIKKDRIFT AS","source":"https://www.coop.no/butikker/coop-prix/coop-prix-voss-4793"}},{"type":"Feature","geometry":{"type":"Point","coordinates":[11.7301641,63.7765809]},"properties":{"name":"Coop Prix Vuku","address":"Bredingsberg 4, 7660 Vuku","chain":"prix","samvirkelag":"COOP MIDT-NORGE SA","source":"https://www.coop.no/butikker/coop-prix/coop-prix-vuku-1741"}},{"type":"Feature","geometry":{"type":"Point","coordinates":[5.73021,58.9628]},"properties":{"name":"Coop Prix Våland","address":"Storgata 30, 4010 Stavanger","chain":"prix","samvirkelag":"COOP ØKONOM SA","source":"https://www.coop.no/butikker/coop-prix/coop-prix-valand-1303"}},{"type":"Feature","geometry":{"type":"Point","coordinates":[12.6987058,67.6658509]},"properties":{"name":"Coop Prix Værøy","address":"Sørland, 8063 Værøy","chain":"prix","samvirkelag":"COOP NORDLAND SA","source":"https://www.coop.no/butikker/coop-prix/coop-prix-vaeroy-1874"}},{"type":"Feature","geometry":{"type":"Point","coordinates":[10.7415661,59.9240333]},"properties":{"name":"Coop Prix Waldemar Thranesgate","address":"Waldemar Thranes gate 5, 0171 Oslo","chain":"prix","samvirkelag":"NORSK BUTIKKDRIFT AS","source":"https://www.coop.no/butikker/coop-prix/coop-prix-waldemar-thranesgate-4675"}},{"type":"Feature","geometry":{"type":"Point","coordinates":[5.4373284,60.4600883]},"properties":{"name":"Coop Prix Ytre Arna","address":"Peter Jebsens veg 19, 5265 Ytre Arna","chain":"prix","samvirkelag":"COOP HORDALAND SA","source":"https://www.coop.no/butikker/coop-prix/coop-prix-ytre-arna-1461"}},{"type":"Feature","geometry":{"type":"Point","coordinates":[9.7421742,62.9849169]},"properties":{"name":"Coop Prix Å","address":"Stensveien 1, 7335 Jerpstad","chain":"prix","samvirkelag":"COOP Å SA","source":"https://www.coop.no/butikker/coop-prix/coop-prix-a-1757"}},{"type":"Feature","geometry":{"type":"Point","coordinates":[10.743534,59.915165]},"properties":{"name":"Coop Prix Vg-Huset","address":"Akersgata 55, 0180 Oslo","chain":"prix","samvirkelag":"NORSK BUTIKKDRIFT AS","source":"https://www.coop.no/butikker/coop-prix/coop-prix-vg-huset-4216"}},{"type":"Feature","geometry":{"type":"Point","coordinates":[14.074,66.2884]},"properties":{"name":"Coop Prix Åga","address":"Nygata 41, 8618 Mo i Rana","chain":"prix","samvirkelag":"COOP MIDT-NORGE SA","source":"https://www.coop.no/butikker/coop-prix/coop-prix-aga-1666"}},{"type":"Feature","geometry":{"type":"Point","coordinates":[8.4829722,58.7657698]},"properties":{"name":"Coop Prix Åmli","address":"Fossevegen 8, 4865 Åmli","chain":"prix","samvirkelag":"COOP SØRVEST SA","source":"https://www.coop.no/butikker/coop-prix/coop-prix-amli-2129"}},{"type":"Feature","geometry":{"type":"Point","coordinates":[9.53811,59.195009]},"properties":{"name":"Coop Prix Åfoss","address":"Elsetvegen 120, 3731 Skien","chain":"prix","samvirkelag":"COOP SØRØST SA","source":"https://www.coop.no/butikker/coop-prix/coop-prix-afoss-1213"}},{"type":"Feature","geometry":{"type":"Point","coordinates":[8.308272,63.1190322]},"properties":{"name":"Coop Prix Vågland","address":"Glåmsmyrvegen 11, 6683 Vågland","chain":"prix","samvirkelag":"COOP NORDVEST SA","source":"https://www.coop.no/butikker/coop-prix/coop-prix-vagland-1788"}},{"type":"Feature","geometry":{"type":"Point","coordinates":[6.1804105,59.1511153]},"properties":{"name":"Coop Prix Årdal","address":"Årdalstunet 4, 4137 Årdal","chain":"prix","samvirkelag":"COOP ØKONOM SA","source":"https://www.coop.no/butikker/coop-prix/coop-prix-ardal-1315"}},{"type":"Feature","geometry":{"type":"Point","coordinates":[7.2812094,62.754699]},"properties":{"name":"Coop Prix Årølia","address":"Årømyran 31e, 6421 Molde","chain":"prix","samvirkelag":"COOP NORDVEST SA","source":"https://www.coop.no/butikker/coop-prix/coop-prix-arolia-2808"}},{"type":"Feature","geometry":{"type":"Point","coordinates":[7.40826,58.6109]},"properties":{"name":"Coop Prix Åseral","address":"Gardsvegen 8, 4540 Åseral","chain":"prix","samvirkelag":"COOP SØRVEST SA","source":"https://www.coop.no/butikker/coop-prix/coop-prix-aseral-3326"}},{"type":"Feature","geometry":{"type":"Point","coordinates":[22.3493,70.2405]},"properties":{"name":"Coop Prix Øksfjord","address":"Strandveien 12, 9550 Øksfjord","chain":"prix","samvirkelag":"COOP FINNMARK SA","source":"https://www.coop.no/butikker/coop-prix/coop-prix-oksfjord-1969"}},{"type":"Feature","geometry":{"type":"Point","coordinates":[10.841779,59.8924692]},"properties":{"name":"Coop Prix Østmarkveien","address":"Østmarkveien 2, 0687 Oslo","chain":"prix","samvirkelag":"J.E.A. VAREHANDEL AS","source":"https://www.coop.no/butikker/coop-prix/coop-prix-ostmarkveien-4712"}},{"type":"Feature","geometry":{"type":"Point","coordinates":[10.3895671,63.423003]},"properties":{"name":"Coop Prix Øya","address":"Klostergata 48, 7030 Trondheim","chain":"prix","samvirkelag":"COOP MIDT-NORGE SA","source":"https://www.coop.no/butikker/coop-prix/coop-prix-oya-1802"}},{"type":"Feature","geometry":{"type":"Point","coordinates":[11.507788,64.467932]},"properties":{"name":"Extra Abc","address":"Jernbanegata 1, 7800 Namsos","chain":"extra","samvirkelag":"NORSK BUTIKKDRIFT AS","source":"https://www.coop.no/butikker/extra/extra-abc-4775"}},{"type":"Feature","geometry":{"type":"Point","coordinates":[10.6159608,62.1151984]},"properties":{"name":"Extra Alvdal","address":"Nord-Østerdalsveien 5152, 2560 Alvdal","chain":"extra","samvirkelag":"COOP OPPDAL SA","source":"https://www.coop.no/butikker/extra/extra-alvdal-2777"}},{"type":"Feature","geometry":{"type":"Point","coordinates":[11.2110711,60.1407021]},"properties":{"name":"Extra Algarheimveien","address":"Algarheimsvegen 77, 2052 Jessheim","chain":"extra","samvirkelag":"NORSK BUTIKKDRIFT AS","source":"https://www.coop.no/butikker/extra/extra-algarheimveien-4255"}},{"type":"Feature","geometry":{"type":"Point","coordinates":[11.0887169,59.2746068]},"properties":{"name":"Extra Alvim","address":"Doktor Johnsens gate 4, 1725 Sarpsborg","chain":"extra","samvirkelag":"NORSK BUTIKKDRIFT AS","source":"https://www.coop.no/butikker/extra/extra-alvim-4935"}},{"type":"Feature","geometry":{"type":"Point","coordinates":[16.0991608,69.3103312]},"properties":{"name":"Extra Andenes","address":"Industriveien 4, 8480 Andenes","chain":"extra","samvirkelag":"COOP NORDLAND SA","source":"https://www.coop.no/butikker/extra/extra-andenes-2666"}},{"type":"Feature","geometry":{"type":"Point","coordinates":[17.3874974,68.4191444]},"properties":{"name":"Extra Ankenes","address":"Torgveien 2, 8520 Ankenesstrand","chain":"extra","samvirkelag":"COOP NORD SA","source":"https://www.coop.no/butikker/extra/extra-ankenes-1856"}},{"type":"Feature","geometry":{"type":"Point","coordinates":[5.3454641,60.2980109]},"properties":{"name":"Extra Apeltun","address":"Nedre Nøttveit 12, 5238 Rådal","chain":"extra","samvirkelag":"COOP HORDALAND SA","source":"https://www.coop.no/butikker/extra/extra-apeltun-2432"}},{"type":"Feature","geometry":{"type":"Point","coordinates":[23.31350893,69.96282803]},"properties":{"name":"Extra Aronnes","address":"Holstsletta 1, 9514 Alta","chain":"extra","samvirkelag":"COOP FINNMARK SA","source":"https://www.coop.no/butikker/extra/extra-aronnes-2864"}},{"type":"Feature","geometry":{"type":"Point","coordinates":[10.43038687,59.83674634]},"properties":{"name":"Extra Askerholmen","address":"Gamle Drammensvei 227, 1383 Asker","chain":"extra","samvirkelag":"NORSK BUTIKKDRIFT AS","source":"https://www.coop.no/butikker/extra/extra-askerholmen-4084"}},{"type":"Feature","geometry":{"type":"Point","coordinates":[5.203309,60.422606]},"properties":{"name":"Extra Askøy","address":"Kleppevegen 110, 5300 Kleppestø","chain":"extra","samvirkelag":"NORSK BUTIKKDRIFT AS","source":"https://www.coop.no/butikker/extra/extra-askoy-4300"}},{"type":"Feature","geometry":{"type":"Point","coordinates":[11.1637932,59.5831739]},"properties":{"name":"Extra Askimtorget","address":"Rådhusgata 8B, 1830 Askim","chain":"extra","samvirkelag":"TEKLAY AS","source":"https://www.coop.no/butikker/extra/extra-askimtorget-4040"}},{"type":"Feature","geometry":{"type":"Point","coordinates":[11.3509629,60.034067]},"properties":{"name":"Extra Auli Senter","address":"Sentervegen 7, 1929 Auli","chain":"extra","samvirkelag":"NORSK BUTIKKDRIFT AS","source":"https://www.coop.no/butikker/extra/extra-auli-senter-4065"}},{"type":"Feature","geometry":{"type":"Point","coordinates":[8.5311858,63.2678979]},"properties":{"name":"Extra Aure","address":"Aurdalsvegen 7, 6690 Aure","chain":"extra","samvirkelag":"COOP NORDVEST SA","source":"https://www.coop.no/butikker/extra/extra-aure-1791"}},{"type":"Feature","geometry":{"type":"Point","coordinates":[11.4445,59.9284]},"properties":{"name":"Extra Aurskog","address":"Senterveien 10, 1930 Aurskog","chain":"extra","samvirkelag":"COOP ØST SA","source":"https://www.coop.no/butikker/extra/extra-aurskog-1048"}},{"type":"Feature","geometry":{"type":"Point","coordinates":[10.2054899,59.7294554]},"properties":{"name":"Extra Austad","address":"Austadveien 1, 3043 Drammen","chain":"extra","samvirkelag":"R.M HANDEL AS","source":"https://www.coop.no/butikker/extra/extra-austad-4335"}},{"type":"Feature","geometry":{"type":"Point","coordinates":[5.2249801,60.1000873]},"properties":{"name":"Extra Austevoll","address":"Storebøvegen, 5392 Storebø","chain":"extra","samvirkelag":"COOP HORDALAND SA","source":"https://www.coop.no/butikker/extra/extra-austevoll-2570"}},{"type":"Feature","geometry":{"type":"Point","coordinates":[5.30483,59.394]},"properties":{"name":"Extra Austmannaveien","address":"Austmannavegen 11, 5537 Haugesund","chain":"extra","samvirkelag":"COOP SØRVEST SA","source":"https://www.coop.no/butikker/extra/extra-austmannaveien-1235"}},{"type":"Feature","geometry":{"type":"Point","coordinates":[5.7581267,58.8448907]},"properties":{"name":"Extra Austrått","address":"Øygardsveien 158, 4325 Sandnes","chain":"extra","samvirkelag":"NORSK BUTIKKDRIFT AS","source":"https://www.coop.no/butikker/extra/extra-austratt-4689"}},{"type":"Feature","geometry":{"type":"Point","coordinates":[5.2784372,59.3555793]},"properties":{"name":"Extra Avaldsnes","address":"Kong Augvalds veg 10B, 4262 Avaldsnes","chain":"extra","samvirkelag":"COOP SØRVEST SA","source":"https://www.coop.no/butikker/extra/extra-avaldsnes-1236"}},{"type":"Feature","geometry":{"type":"Point","coordinates":[16.8319833,68.3425365]},"properties":{"name":"Extra Ballangen","address":"Sentrumsveien 57, 8540 Ballangen","chain":"extra","samvirkelag":"COOP NORD SA","source":"https://www.coop.no/butikker/extra/extra-ballangen-1854"}},{"type":"Feature","geometry":{"type":"Point","coordinates":[14.3922494,67.2773893]},"properties":{"name":"Extra Bankgata","address":"Bankgata 34, 8005 Bodø","chain":"extra","samvirkelag":"COOP NORDLAND SA","source":"https://www.coop.no/butikker/extra/extra-bankgata-1870"}},{"type":"Feature","geometry":{"type":"Point","coordinates":[8.91015,61.2466796]},"properties":{"name":"Extra Beitostølen","address":"Bygdinvegen 3764, 2953 Beitostølen","chain":"extra","samvirkelag":"NORSK BUTIKKDRIFT AS","source":"https://www.coop.no/butikker/extra/extra-beitostolen-4043"}},{"type":"Feature","geometry":{"type":"Point","coordinates":[18.5119234,69.0650177]},"properties":{"name":"Extra Bardufoss","address":"Domussenteret, 9325 Bardufoss","chain":"extra","samvirkelag":"COOP NORD SA","source":"https://www.coop.no/butikker/extra/extra-bardufoss-1987"}},{"type":"Feature","geometry":{"type":"Point","coordinates":[10.451978,59.43356]},"properties":{"name":"Extra Bekkajordet","address":"Gamleveien 55, 3189 Horten","chain":"extra","samvirkelag":"NORSK BUTIKKDRIFT AS","source":"https://www.coop.no/butikker/extra/extra-bekkajordet-4698"}},{"type":"Feature","geometry":{"type":"Point","coordinates":[5.7270412,58.9510646]},"properties":{"name":"Extra Bekkefaret","address":"Hjalmar Johansens gate 2, 4019 Stavanger","chain":"extra","samvirkelag":"COOP ØKONOM SA","source":"https://www.coop.no/butikker/extra/extra-bekkefaret-1306"}},{"type":"Feature","geometry":{"type":"Point","coordinates":[10.5882006,59.9170962]},"properties":{"name":"Extra Bekkestua","address":"Gamle Ringeriksvei 35A, 1357 Bekkestua","chain":"extra","samvirkelag":"NORSK BUTIKKDRIFT AS","source":"https://www.coop.no/butikker/extra/extra-bekkestua-4066"}},{"type":"Feature","geometry":{"type":"Point","coordinates":[5.3318142,60.3892373]},"properties":{"name":"Extra Bergen Storsenter","address":"Strømgaten 8, 5015 Bergen","chain":"extra","samvirkelag":"NORSK BUTIKKDRIFT AS","source":"https://www.coop.no/butikker/extra/extra-bergen-storsenter-4219"}},{"type":"Feature","geometry":{"type":"Point","coordinates":[10.0112663,62.8290621]},"properties":{"name":"Extra Berkåk","address":"Paralellveien 8, 7391 Rennebu","chain":"extra","samvirkelag":"COOP NORDVEST SA","source":"https://www.coop.no/butikker/extra/extra-berkak-1783"}},{"type":"Feature","geometry":{"type":"Point","coordinates":[8.2325829,58.3301686]},"properties":{"name":"Extra Birkeland","address":"Strøget 56, 4760 Birkeland","chain":"extra","samvirkelag":"COOP SØRVEST SA","source":"https://www.coop.no/butikker/extra/extra-birkeland-1356"}},{"type":"Feature","geometry":{"type":"Point","coordinates":[10.6094218,60.9553556]},