{"type":"FeatureCollection","features":[{"type":"Feature","geometry":{"type":"Point","coordinates":[11.0563884,60.8093128]},"properties":{"name":"Coop Prix Ajer","address":"Vognvegen 133, 2315 Hamar","source":"https://www.coop.no/butikker/coop-prix/coop-prix-ajer-2620"}},{"type":"Feature","geometry":{"type":"Point","coordinates":[11.0566735,59.960195]},"properties":{"name":"Coop Prix Alexander Kiellands Gt","address":"Alexander Kiellands Gate 10A, 2000 Lillestrøm","source":"https://www.coop.no/butikker/coop-prix/coop-prix-alexander-kiellands-gt-4539"}},{"type":"Feature","geometry":{"type":"Point","coordinates":[16.1198901,69.314539]},"properties":{"name":"Coop Prix Andenes","address":"Storgata 69, 8480 Andenes","source":"https://www.coop.no/butikker/coop-prix/coop-prix-andenes-1900"}},{"type":"Feature","geometry":{"type":"Point","coordinates":[5.7491633,58.971822]},"properties":{"name":"Coop Prix Badedammen","address":"Banevigsgata 7, 4014 Stavanger","source":"https://www.coop.no/butikker/coop-prix/coop-prix-badedammen-2430"}},{"type":"Feature","geometry":{"type":"Point","coordinates":[9.55029,60.8227]},"properties":{"name":"Coop Prix Bagn","address":"Storebruvegen 30, 2930 Bagn","source":"https://www.coop.no/butikker/coop-prix/coop-prix-bagn-2440"}},{"type":"Feature","geometry":{"type":"Point","coordinates":[6.5368828,61.2101266]},"properties":{"name":"Coop Prix Balestrand","address":"Holmen 1, 6898 Balestrand","source":"https://www.coop.no/butikker/coop-prix/coop-prix-balestrand-1433"}},{"type":"Feature","geometry":{"type":"Point","coordinates":[14.7584,66.9886]},"properties":{"name":"Coop Prix Beiarn","address":"Østre Beiarveien 5, 8110 Moldjord","source":"https://www.coop.no/butikker/coop-prix/coop-prix-beiarn-1894"}},{"type":"Feature","geometry":{"type":"Point","coordinates":[11.3918651,64.1080574]},"properties":{"name":"Coop Prix Beitstad","address":"Namsosvegen 946, 7730 Beitstad","source":"https://www.coop.no/butikker/coop-prix/coop-prix-beitstad-1700"}},{"type":"Feature","geometry":{"type":"Point","coordinates":[10.5866537,59.9183598]},"properties":{"name":"Coop Prix Bekkestua","address":"Gamle Ringeriksvei 39, 1357 Bekkestua","source":"https://www.coop.no/butikker/coop-prix/coop-prix-bekkestua-2697"}},{"type":"Feature","geometry":{"type":"Point","coordinates":[12.1974657,65.3696877]},"properties":{"name":"Coop Prix Berg","address":"Klakkjeveien 5, 8920 Sømna","source":"https://www.coop.no/butikker/coop-prix/coop-prix-berg-2651"}},{"type":"Feature","geometry":{"type":"Point","coordinates":[10.672907,59.9572142]},"properties":{"name":"Coop Prix Besserud","address":"Holmenkollveien 96 A, 0784 Oslo","source":"https://www.coop.no/butikker/coop-prix/coop-prix-besserud-4278"}},{"type":"Feature","geometry":{"type":"Point","coordinates":[10.6503268,59.9197143]},"properties":{"name":"Coop Prix Bestum","address":"Vækerøveien 24, 0282 Oslo","source":"https://www.coop.no/butikker/coop-prix/coop-prix-bestum-4534"}},{"type":"Feature","geometry":{"type":"Point","coordinates":[12.2302587,65.1260387]},"properties":{"name":"Coop Prix Bindalseidet","address":"Kalvikveien 25, 7982 Bindalseidet","source":"https://www.coop.no/butikker/coop-prix/coop-prix-bindalseidet-2844"}},{"type":"Feature","geometry":{"type":"Point","coordinates":[20.8315,69.4955]},"properties":{"name":"Coop Prix Birtavarre","address":"Verksvegen 9, 9147 Birtavarre","source":"https://www.coop.no/butikker/coop-prix/coop-prix-birtavarre-1936"}},{"type":"Feature","geometry":{"type":"Point","coordinates":[13.8363757,66.1524812]},"properties":{"name":"Coop Prix Bjerka","address":"Bjerkadalsveien, 8643 Bjerka","source":"https://www.coop.no/butikker/coop-prix/coop-prix-bjerka-1732"}},{"type":"Feature","geometry":{"type":"Point","coordinates":[6.07293,58.5837]},"properties":{"name":"Coop Prix Bjerkreim","address":"Røyslandsvegen 135, 4387 Bjerkreim","source":"https://www.coop.no/butikker/coop-prix/coop-prix-bjerkreim-1290"}},{"type":"Feature","geometry":{"type":"Point","coordinates":[10.485156,59.793024]},"properties":{"name":"Coop Prix Bjerkås. Nbda","address":"Høymyrmarka 3, 1391 Vollen","source":"https://www.coop.no/butikker/coop-prix/coop-prix-bjerkas-nbda-4056"}},{"type":"Feature","geometry":{"type":"Point","coordinates":[10.6423631,59.830694]},"properties":{"name":"Coop Prix Bjørnemyr","address":"Tosletta 44, 1453 Bjørnemyr","source":"https://www.coop.no/butikker/coop-prix/coop-prix-bjornemyr-1007"}},{"type":"Feature","geometry":{"type":"Point","coordinates":[13.8121509,65.9082168]},"properties":{"name":"Coop Prix Bleikvassli","address":"Langliveien 4, 8647 Bleikvasslia","source":"https://www.coop.no/butikker/coop-prix/coop-prix-bleikvassli-2818"}},{"type":"Feature","geometry":{"type":"Point","coordinates":[5.4392925,59.2323194]},"properties":{"name":"Coop Prix Bokn","address":"Føresvikvegen 1, 5561 Bokn","source":"https://www.coop.no/butikker/coop-prix/coop-prix-bokn-1226"}},{"type":"Feature","geometry":{"type":"Point","coordinates":[5.1795296,59.7947127]},"properties":{"name":"Coop Prix Bremnes","address":"Kyrkjegardsvegen 1, 5430 Bremnes","source":"https://www.coop.no/butikker/coop-prix/coop-prix-bremnes-1242"}},{"type":"Feature","geometry":{"type":"Point","coordinates":[5.7474295,58.5397981]},"properties":{"name":"Coop Prix Brusand","address":"Bru 17, 4363 Brusand","source":"https://www.coop.no/butikker/coop-prix/coop-prix-brusand-2762"}},{"type":"Feature","geometry":{"type":"Point","coordinates":[8.092787,61.91429]},"properties":{"name":"Coop Prix Bruvoll","address":"Bråtåvegen 6, 2693 Nordberg","source":"https://www.coop.no/butikker/coop-prix/coop-prix-bruvoll-2802"}},{"type":"Feature","geometry":{"type":"Point","coordinates":[17.694494,69.0918408]},"properties":{"name":"Coop Prix Brøstadbotn","address":"Tverrveien 7, 9311 Brøstadbotn","source":"https://www.coop.no/butikker/coop-prix/coop-prix-brostadbotn-1916"}},{"type":"Feature","geometry":{"type":"Point","coordinates":[6.9208438,62.90834]},"properties":{"name":"Coop Prix Bud","address":"Strandavegen 1, 6430 Bud","source":"https://www.coop.no/butikker/coop-prix/coop-prix-bud-1478"}},{"type":"Feature","geometry":{"type":"Point","coordinates":[10.4836063,62.8835927]},"properties":{"name":"Coop Prix Budal","address":"Synnerdalsveien 7, 7298 Budal","source":"https://www.coop.no/butikker/coop-prix/coop-prix-budal-2761"}},{"type":"Feature","geometry":{"type":"Point","coordinates":[22.0510687,69.9390948]},"properties":{"name":"Coop Prix Burfjord","address":"Fv364, 9161 Burfjord","source":"https://www.coop.no/butikker/coop-prix/coop-prix-burfjord-1998"}},{"type":"Feature","geometry":{"type":"Point","coordinates":[10.704104,59.918708]},"properties":{"name":"Coop Prix Bygdøy Allè","address":"Bygdøy allé 61, 0265 Oslo","source":"https://www.coop.no/butikker/coop-prix/coop-prix-bygdoy-alle-4266"}},{"type":"Feature","geometry":{"type":"Point","coordinates":[7.8055799,58.6701475]},"properties":{"name":"Coop Prix Byglandsfjord","address":"Strandgata 7, 4741 Byglandsfjord","source":"https://www.coop.no/butikker/coop-prix/coop-prix-byglandsfjord-1332"}},{"type":"Feature","geometry":{"type":"Point","coordinates":[7.9903,58.148212]},"properties":{"name":"Coop Prix Byhaven","address":"Tordenskjoldsgate 36, 4612 Kristiansand","source":"https://www.coop.no/butikker/coop-prix/coop-prix-byhaven-2716"}},{"type":"Feature","geometry":{"type":"Point","coordinates":[7.3467102,59.3524011]},"properties":{"name":"Coop Prix Bykle","address":"Setesdalsvegen 4070, 4754 Bykle","source":"https://www.coop.no/butikker/coop-prix/coop-prix-bykle-1324"}},{"type":"Feature","geometry":{"type":"Point","coordinates":[6.50585,61.73324]},"properties":{"name":"Coop Prix Byrkjelo","address":"Fv60, 6826 Byrkjelo","source":"https://www.coop.no/butikker/coop-prix/coop-prix-byrkjelo-1467"}},{"type":"Feature","geometry":{"type":"Point","coordinates":[8.3476516,61.7208854]},"properties":{"name":"Coop Prix Bøverdalen","address":"Sognefjellsvegen 1943, 2687 Bøverdalen","source":"https://www.coop.no/butikker/coop-prix/coop-prix-boverdalen-2824"}},{"type":"Feature","geometry":{"type":"Point","coordinates":[11.2075257,60.2491512]},"properties":{"name":"Coop Prix Dal","address":"Furusethsenteret, 2072 Dal","source":"https://www.coop.no/butikker/coop-prix/coop-prix-dal-1224"}},{"type":"Feature","geometry":{"type":"Point","coordinates":[11.422,59.3564]},"properties":{"name":"Coop Prix Degernes","address":"Idrettsveien 2, 1892 Degernes","source":"https://www.coop.no/butikker/coop-prix/coop-prix-degernes-1065"}},{"type":"Feature","geometry":{"type":"Point","coordinates":[9.2483409,61.9873143]},"properties":{"name":"Coop Prix Dovre","address":"Kongsvegen 12, 2662 Dovre","source":"https://www.coop.no/butikker/coop-prix/coop-prix-dovre-2772"}},{"type":"Feature","geometry":{"type":"Point","coordinates":[6.6704161,58.3117331]},"properties":{"name":"Coop Prix Drangeid","address":"Glendrangeveien 5, 4406 Flekkefjord","source":"https://www.coop.no/butikker/coop-prix/coop-prix-drangeid-4719"}},{"type":"Feature","geometry":{"type":"Point","coordinates":[8.6822489,63.7979012]},"properties":{"name":"Coop Prix Dyrøy","address":"Dyrøyveien 792, 7273 Norddyrøy","source":"https://www.coop.no/butikker/coop-prix/coop-prix-dyroy-2757"}},{"type":"Feature","geometry":{"type":"Point","coordinates":[12.577775,66.171178]},"properties":{"name":"Coop Prix Dønna","address":"Stavsengveien 30, 8820 Dønna","source":"https://www.coop.no/butikker/coop-prix/coop-prix-donna-1624"}},{"type":"Feature","geometry":{"type":"Point","coordinates":[7.0678124,60.4667162]},"properties":{"name":"Coop Prix Eidfjord","address":"Ostangvegen 11, 5783 Eidfjord","source":"https://www.coop.no/butikker/coop-prix/coop-prix-eidfjord-2842"}},{"type":"Feature","geometry":{"type":"Point","coordinates":[7.2313185,58.465934]},"properties":{"name":"Coop Prix Eiken","address":"Langebakk 39, 4596 Eiken","source":"https://www.coop.no/butikker/coop-prix/coop-prix-eiken-1325"}},{"type":"Feature","geometry":{"type":"Point","coordinates":[13.5355575,66.7800193]},"properties":{"name":"Coop Prix Engavågen","address":"Enga 1, 8170 Engavågen","source":"https://www.coop.no/butikker/coop-prix/coop-prix-engavagen-2677"}},{"type":"Feature","geometry":{"type":"Point","coordinates":[11.96041,61.7571]},"properties":{"name":"Coop Prix Engerdal","address":"Engerdalsveien 1790, 2440 Engerdal","source":"https://www.coop.no/butikker/coop-prix/coop-prix-engerdal-2062"}},{"type":"Feature","geometry":{"type":"Point","coordinates":[10.7949473,59.9096798]},"properties":{"name":"Coop Prix Etterstad","address":"Etterstadsletta 3, 0660 Oslo","source":"https://www.coop.no/butikker/coop-prix/coop-prix-etterstad-1120"}},{"type":"Feature","geometry":{"type":"Point","coordinates":[10.406558,59.272926]},"properties":{"name":"Coop Prix Farmannsveien","address":"Farmannsveien 28, 3111 Tønsberg","source":"https://www.coop.no/butikker/coop-prix/coop-prix-farmannsveien-4696"}},{"type":"Feature","geometry":{"type":"Point","coordinates":[12.204,65.4632]},"properties":{"name":"Coop Prix Farmen","address":"Farmenveien 40, 8900 Brønnøysund","source":"https://www.coop.no/butikker/coop-prix/coop-prix-farmen-2130"}},{"type":"Feature","geometry":{"type":"Point","coordinates":[7.1624701,62.9738584]},"properties":{"name":"Coop Prix Farstad","address":"Farstadvegen 1756, 6444 Farstad","source":"https://www.coop.no/butikker/coop-prix/coop-prix-farstad-1474"}},{"type":"Feature","geometry":{"type":"Point","coordinates":[6.8175108,58.2694979]},"properties":{"name":"Coop Prix Feda","address":"Leirvollen 2, 4485 Feda","source":"https://www.coop.no/butikker/coop-prix/coop-prix-feda-1353"}},{"type":"Feature","geometry":{"type":"Point","coordinates":[11.158421,60.4817855]},"properties":{"name":"Coop Prix Feiring","address":"Feiringvegen 1157, 2093 Feiring","source":"https://www.coop.no/butikker/coop-prix/coop-prix-feiring-1223"}},{"type":"Feature","geometry":{"type":"Point","coordinates":[8.5781761,61.1261781]},"properties":{"name":"Coop Prix Fjellvang","address":"Tyinvegen, 2975 Vang i Valdres","source":"https://www.coop.no/butikker/coop-prix/coop-prix-fjellvang-2101"}},{"type":"Feature","geometry":{"type":"Point","coordinates":[9.993528,62.1330913]},"properties":{"name":"Coop Prix Folldal","address":"Gruvvegen 2, 2580 Folldal","source":"https://www.coop.no/butikker/coop-prix/coop-prix-folldal-1645"}},{"type":"Feature","geometry":{"type":"Point","coordinates":[10.621642,59.897744]},"properties":{"name":"Coop Prix Fornebu","address":"Forneburingen 248, 1364 Fornebu","source":"https://www.coop.no/butikker/coop-prix/coop-prix-fornebu-2699"}},{"type":"Feature","geometry":{"type":"Point","coordinates":[10.052203,59.064739]},"properties":{"name":"Coop Prix Frankendalsveien","address":"Frankendalsveien 95, 3274 Larvik","source":"https://www.coop.no/butikker/coop-prix/coop-prix-frankendalsveien-4740"}},{"type":"Feature","geometry":{"type":"Point","coordinates":[7.7859886,63.0380543]},"properties":{"name":"Coop Prix Frei","address":"Kongsveien 128, 6524 Frei","source":"https://www.coop.no/butikker/coop-prix/coop-prix-frei-1538"}},{"type":"Feature","geometry":{"type":"Point","coordinates":[23.6669,70.6733]},"properties":{"name":"Coop Prix Fuglenes","address":"Tromsveien 17, 9600 Hammerfest","source":"https://www.coop.no/butikker/coop-prix/coop-prix-fuglenes-1918"}},{"type":"Feature","geometry":{"type":"Point","coordinates":[7.2967303,61.4029565]},"properties":{"name":"Coop Prix Gaupne","address":"Rådhusvegen 3, 6868 Gaupne","source":"https://www.coop.no/butikker/coop-prix/coop-prix-gaupne-1425"}},{"type":"Feature","geometry":{"type":"Point","coordinates":[9.9686337,59.931956]},"properties":{"name":"Coop Prix Geithus","address":"Folkvangveien 1, 3360 Geithus","source":"https://www.coop.no/butikker/coop-prix/coop-prix-geithus-1147"}},{"type":"Feature","geometry":{"type":"Point","coordinates":[7.9987011,58.1608617]},"properties":{"name":"Coop Prix Gimlevang","address":"Ingerthas vei 1, 4630 Kristiansand","source":"https://www.coop.no/butikker/coop-prix/coop-prix-gimlevang-1343"}},{"type":"Feature","geometry":{"type":"Point","coordinates":[9.0183986,58.8812699]},"properties":{"name":"Coop Prix Gjerstad","address":"Gjerstadveien 1337, 4980 Gjerstad","source":"https://www.coop.no/butikker/coop-prix/coop-prix-gjerstad-1337"}},{"type":"Feature","geometry":{"type":"Point","coordinates":[7.1872315,62.7444064]},"properties":{"name":"Coop Prix Granlia","address":"Langmyrvegen 81, 6415 Molde","source":"https://www.coop.no/butikker/coop-prix/coop-prix-granlia-1513"}},{"type":"Feature","geometry":{"type":"Point","coordinates":[6.72061002,60.5245744]},"properties":{"name":"Coop Prix Granvin","address":"Hardangervegen 2566, 5736 Granvin","source":"https://www.coop.no/butikker/coop-prix/coop-prix-granvin-2801"}},{"type":"Feature","geometry":{"type":"Point","coordinates":[7.8365126,58.1556001]},"properties":{"name":"Coop Prix Greipstad","address":"Songdalsveien 104 D, 4645 Nodeland","source":"https://www.coop.no/butikker/coop-prix/coop-prix-greipstad-1341"}},{"type":"Feature","geometry":{"type":"Point","coordinates":[9.1741628,59.3877866]},"properties":{"name":"Coop Prix Gvarv","address":"Gvarvgata 41, 3810 Gvarv","source":"https://www.coop.no/butikker/coop-prix/coop-prix-gvarv-1192"}},{"type":"Feature","geometry":{"type":"Point","coordinates":[10.829506,59.723656]},"properties":{"name":"Coop Prix Hageveien","address":"Hageveien 2, 1423 Ski","source":"https://www.coop.no/butikker/coop-prix/coop-prix-hageveien-4064"}},{"type":"Feature","geometry":{"type":"Point","coordinates":[11.1532061,62.9248333]},"properties":{"name":"Coop Prix Haltdalen","address":"Heksemvegen 77, 7383 Haltdalen","source":"https://www.coop.no/butikker/coop-prix/coop-prix-haltdalen-2778"}},{"type":"Feature","geometry":{"type":"Point","coordinates":[8.8188921,63.7045068]},"properties":{"name":"Coop Prix Hamarvik","address":"Nordfrøyveien 25, 7263 Hamarvik","source":"https://www.coop.no/butikker/coop-prix/coop-prix-hamarvik-2769"}},{"type":"Feature","geometry":{"type":"Point","coordinates":[10.740756,59.9159737]},"properties":{"name":"Coop Prix Hambros Plass","address":"C. J. Hambros plass 7, 0164 Oslo","source":"https://www.coop.no/butikker/coop-prix/coop-prix-hambros-plass-2633"}},{"type":"Feature","geometry":{"type":"Point","coordinates":[6.2684678,62.6408713]},"properties":{"name":"Coop Prix Haramsøy","address":"Ullavegen 114, 6290 Haramsøy","source":"https://www.coop.no/butikker/coop-prix/coop-prix-haramsoy-2754"}},{"type":"Feature","geometry":{"type":"Point","coordinates":[6.4697728,62.7813684]},"properties":{"name":"Coop Prix Harøy","address":"Austrevegen 2-4, 6487 Harøy","source":"https://www.coop.no/butikker/coop-prix/coop-prix-haroy-1482"}},{"type":"Feature","geometry":{"type":"Point","coordinates":[22.1614,70.4867]},"properties":{"name":"Coop Prix Hasvik","address":"Storgata 9, 9590 Hasvik","source":"https://www.coop.no/butikker/coop-prix/coop-prix-hasvik-1921"}},{"type":"Feature","geometry":{"type":"Point","coordinates":[19.9619629,69.2679907]},"properties":{"name":"Coop Prix Hatteng","address":"Elvestrandveien 1, 9046 Oteren","source":"https://www.coop.no/butikker/coop-prix/coop-prix-hatteng-1955"}},{"type":"Feature","geometry":{"type":"Point","coordinates":[13.9886285,65.5969357]},"properties":{"name":"Coop Prix Hattfjelldal","address":"Ol Johans vei 1, 8692 Hattfjelldal","source":"https://www.coop.no/butikker/coop-prix/coop-prix-hattfjelldal-2736"}},{"type":"Feature","geometry":{"type":"Point","coordinates":[24.6601,70.9967]},"properties":{"name":"Coop Prix Havøysund","address":"Torget 2, 9690 Havøysund","source":"https://www.coop.no/butikker/coop-prix/coop-prix-havoysund-1970"}},{"type":"Feature","geometry":{"type":"Point","coordinates":[9.0693051,61.143283]},"properties":{"name":"Coop Prix Heggenes","address":"Bygdinveien 2128, 2940 Heggenes","source":"https://www.coop.no/butikker/coop-prix/coop-prix-heggenes-2103"}},{"type":"Feature","geometry":{"type":"Point","coordinates":[6.1537344,58.5356282]},"properties":{"name":"Coop Prix Helleland","address":"Sirdalsveien 38, 4376 Helleland","source":"https://www.coop.no/butikker/coop-prix/coop-prix-helleland-2770"}},{"type":"Feature","geometry":{"type":"Point","coordinates":[15.3716712,67.2585483]},"properties":{"name":"Coop Prix Helligberget","address":"Kirkeveien 11, 8200 Fauske","source":"https://www.coop.no/butikker/coop-prix/coop-prix-helligberget-1839"}},{"type":"Feature","geometry":{"type":"Point","coordinates":[5.872871,58.480965]},"properties":{"name":"Coop Prix Hellvik","address":"Trosavigveien 10, 4375 Hellvik","source":"https://www.coop.no/butikker/coop-prix/coop-prix-hellvik-2669"}},{"type":"Feature","geometry":{"type":"Point","coordinates":[11.449,59.7187]},"properties":{"name":"Coop Prix Hemnes","address":"Hemnesveien 220, 1970 Hemnes","source":"https://www.coop.no/butikker/coop-prix/coop-prix-hemnes-1047"}},{"type":"Feature","geometry":{"type":"Point","coordinates":[13.6048,66.2241]},"properties":{"name":"Coop Prix Hemnesberget","address":"Torggata 3, 8640 Hemnesberget","source":"https://www.coop.no/butikker/coop-prix/coop-prix-hemnesberget-1672"}},{"type":"Feature","geometry":{"type":"Point","coordinates":[6.8507325,61.1835933]},"properties":{"name":"Coop Prix Hermansverk","address":"Sognefjordveien 42, 6863 Leikanger","source":"https://www.coop.no/butikker/coop-prix/coop-prix-hermansverk-1431"}},{"type":"Feature","geometry":{"type":"Point","coordinates":[9.5607935,59.1033763]},"properties":{"name":"Coop Prix Herre","address":"Hellestvedtveien 1, 3965 Herre","source":"https://www.coop.no/butikker/coop-prix/coop-prix-herre-1195"}},{"type":"Feature","geometry":{"type":"Point","coordinates":[12.2821116,65.9802875]},"properties":{"name":"Coop Prix Herøy","address":"Herøyholmveien 1, 8850 Herøy","source":"https://www.coop.no/butikker/coop-prix/coop-prix-heroy-1687"}},{"type":"Feature","geometry":{"type":"Point","coordinates":[5.72421,58.9223]},"properties":{"name":"Coop Prix Hinna","address":"Boganesveien 2, 4020 Stavanger","source":"https://www.coop.no/butikker/coop-prix/coop-prix-hinna-1308"}},{"type":"Feature","geometry":{"type":"Point","coordinates":[9.9123028,59.7751319]},"properties":{"name":"Coop Prix Hokksund","address":"Storgata 2, 3300 Hokksund","source":"https://www.coop.no/butikker/coop-prix/coop-prix-hokksund-1164"}},{"type":"Feature","geometry":{"type":"Point","coordinates":[10.784205,59.826996]},"properties":{"name":"Coop Prix Holmlia","address":"Dyretråkket 31, 1251 Oslo","source":"https://www.coop.no/butikker/coop-prix/coop-prix-holmlia-2680"}},{"type":"Feature","geometry":{"type":"Point","coordinates":[8.0148702,63.4598862]},"properties":{"name":"Coop Prix Hopen","address":"Rådhusveien 1, 6570 Smøla","source":"https://www.coop.no/butikker/coop-prix/coop-prix-hopen-1485"}},{"type":"Feature","geometry":{"type":"Point","coordinates":[6.5257023,61.9688945]},"properties":{"name":"Coop Prix Hornindal","address":"Grøddesvegen 2, 6763 Hornindal","source":"https://www.coop.no/butikker/coop-prix/coop-prix-hornindal-1570"}},{"type":"Feature","geometry":{"type":"Point","coordinates":[10.2252674,63.105085]},"properties":{"name":"Coop Prix Hovin","address":"Krogstadvegen 6, 7236 Hovin","source":"https://www.coop.no/butikker/coop-prix/coop-prix-hovin-1601"}},{"type":"Feature","geometry":{"type":"Point","coordinates":[6.496906,58.5250383]},"properties":{"name":"Coop Prix Hovsherad","address":"Hovsheradveien 738, 4462 Hovsherad","source":"https://www.coop.no/butikker/coop-prix/coop-prix-hovsherad-1261"}},{"type":"Feature","geometry":{"type":"Point","coordinates":[14.5063,67.2768886]},"properties":{"name":"Coop Prix Hunstadmoen","address":"Knut Hamsunsvei 1, 8019 Bodø","source":"https://www.coop.no/butikker/coop-prix/coop-prix-hunstadmoen-1878"}},{"type":"Feature","geometry":{"type":"Point","coordinates":[11.0702371,60.4344368]},"properties":{"name":"Coop Prix Hurdal","address":"Brustadvegen 3, 2090 Hurdal","source":"https://www.coop.no/butikker/coop-prix/coop-prix-hurdal-2638"}},{"type":"Feature","geometry":{"type":"Point","coordinates":[7.5300753,59.0959388]},"properties":{"name":"Coop Prix Hylestad","address":"Stovegen 4, 4748 Rysstad","source":"https://www.coop.no/butikker/coop-prix/coop-prix-hylestad-1340"}},{"type":"Feature","geometry":{"type":"Point","coordinates":[8.091682,58.173682]},"properties":{"name":"Coop Prix Hånni","address":"Epleveien 1, 4635 Kristiansand","source":"https://www.coop.no/butikker/coop-prix/coop-prix-hanni-4726"}},{"type":"Feature","geometry":{"type":"Point","coordinates":[6.0178356,58.8950794]},"properties":{"name":"Coop Prix Høle","address":"Floen 15, 4308 Sandnes","source":"https://www.coop.no/butikker/coop-prix/coop-prix-hole-2825"}},{"type":"Feature","geometry":{"type":"Point","coordinates":[9.987394,63.1138754]},"properties":{"name":"Coop Prix Hølonda","address":"Hølondvegen 3112, 7213 Gåsbakken","source":"https://www.coop.no/butikker/coop-prix/coop-prix-holonda-2821"}},{"type":"Feature","geometry":{"type":"Point","coordinates":[10.9289882,59.9443502]},"properties":{"name":"Coop Prix Høybråten","address":"Høybråtenveien 79, 1088 Oslo","source":"https://www.coop.no/butikker/coop-prix/coop-prix-hoybraten-2869"}},{"type":"Feature","geometry":{"type":"Point","coordinates":[12.2968194,64.625251]},"properties":{"name":"Coop Prix Høylandet","address":"Gammelåvegen 1, 7877 Høylandet","source":"https://www.coop.no/butikker/coop-prix/coop-prix-hoylandet-1604"}},{"type":"Feature","geometry":{"type":"Point","coordinates":[11.2216851,60.7744498]},"properties":{"name":"Coop Prix Ilseng. Innlandet","address":"Gamlevegen 25, 2344 Ilseng","source":"https://www.coop.no/butikker/coop-prix/coop-prix-ilseng-innlandet-2790"}},{"type":"Feature","geometry":{"type":"Point","coordinates":[14.0279787,67.0363509]},"properties":{"name":"Coop Prix Inndyr","address":"Inndyrsvågen 7, 8140 Inndyr","source":"https://www.coop.no/butikker/coop-prix/coop-prix-inndyr-2720"}},{"type":"Feature","geometry":{"type":"Point","coordinates":[11.3023059,60.6322257]},"properties":{"name":"Coop Prix Innlandsporten","address":"Kolomoen 916, 2337 Tangen","source":"https://www.coop.no/butikker/coop-prix/coop-prix-innlandsporten-2577"}},{"type":"Feature","geometry":{"type":"Point","coordinates":[6.6145527,61.8521936]},"properties":{"name":"Coop Prix Innvik","address":"Fjordvegen 3355, 6793 Innvik","source":"https://www.coop.no/butikker/coop-prix/coop-prix-innvik-4051"}},{"type":"Feature","geometry":{"type":"Point","coordinates":[6.2523162,60.2765714]},"properties":{"name":"Coop Prix Jondal","address":"Jonavegen 5, 5627 Jondal","source":"https://www.coop.no/butikker/coop-prix/coop-prix-jondal-1389"}},{"type":"Feature","geometry":{"type":"Point","coordinates":[10.7785282,59.9114059]},"properties":{"name":"Coop Prix Kampen","address":"Brinken 20, 0654 Oslo","source":"https://www.coop.no/butikker/coop-prix/coop-prix-kampen-2127"}},{"type":"Feature","geometry":{"type":"Point","coordinates":[10.3350607,63.3459976]},"properties":{"name":"Coop Prix Kattem","address":"Uståsen 2, 7082 Kattem","source":"https://www.coop.no/butikker/coop-prix/coop-prix-kattem-1819"}},{"type":"Feature","geometry":{"type":"Point","coordinates":[10.7836756,59.9630592]},"properties":{"name":"Coop Prix Kjelsås","address":"Midtoddveien 2, 0494 Oslo","source":"https://www.coop.no/butikker/coop-prix/coop-prix-kjelsas-1116"}},{"type":"Feature","geometry":{"type":"Point","coordinates":[27.3522,70.9454]},"properties":{"name":"Coop Prix Kjøllefjord","address":"Strandvegen, 9790 Kjøllefjord","source":"https://www.coop.no/butikker/coop-prix/coop-prix-kjollefjord-1926"}},{"type":"Feature","geometry":{"type":"Point","coordinates":[16.3787866,68.0976123]},"properties":{"name":"Coop Prix Kjøpsvik","address":"F. L. Smiths vei 2, 8590 Kjøpsvik","source":"https://www.coop.no/butikker/coop-prix/coop-prix-kjopsvik-1858"}},{"type":"Feature","geometry":{"type":"Point","coordinates":[10.7420388,60.6493952]},"properties":{"name":"Coop Prix Kolbu","address":"Brustadvegen 2, 2847 Kolbu","source":"https://www.coop.no/butikker/coop-prix/coop-prix-kolbu-2085"}},{"type":"Feature","geometry":{"type":"Point","coordinates":[11.0510585,61.570526]},"properties":{"name":"Coop Prix Koppang","address":"Kjemsjøveien 2, 2480 Koppang","source":"https://www.coop.no/butikker/coop-prix/coop-prix-koppang-2020"}},{"type":"Feature","geometry":{"type":"Point","coordinates":[10.0999076,63.1605561]},"properties":{"name":"Coop Prix Korsvegen","address":"Hølondvegen 2051, 7212 Korsvegen","source":"https://www.coop.no/butikker/coop-prix/coop-prix-korsvegen-2756"}},{"type":"Feature","geometry":{"type":"Point","coordinates":[9.5342483,63.4052533]},"properties":{"name":"Coop Prix Krokstadøra","address":"Krokstadøra 5, 7257 Snillfjord","source":"https://www.coop.no/butikker/coop-prix/coop-prix-krokstadora-2836"}},{"type":"Feature","geometry":{"type":"Point","coordinates":[9.7847702,60.1245081]},"properties":{"name":"Coop Prix Krøderen","address":"Krøderfjordveien 397, 3535 Krøderen","source":"https://www.coop.no/butikker/coop-prix/coop-prix-kroderen-1024"}},{"type":"Feature","geometry":{"type":"Point","coordinates":[23.9804831,70.5019225]},"properties":{"name":"Coop Prix Kvalsund","address":"Rådhusvegen 4, 9620 Kvalsund","source":"https://www.coop.no/butikker/coop-prix/coop-prix-kvalsund-2744"}},{"type":"Feature","geometry":{"type":"Point","coordinates":[6.93386,58.52218]},"properties":{"name":"Coop Prix Kvinlog","address":"Krågelandsvegen 12, 4473 Kvinlog","source":"https://www.coop.no/butikker/coop-prix/coop-prix-kvinlog-2826"}},{"type":"Feature","geometry":{"type":"Point","coordinates":[5.40377,59.0621]},"properties":{"name":"Coop Prix Kvitsøy","address":"Melingsgaarden 27, 4180 Kvitsøy","source":"https://www.coop.no/butikker/coop-prix/coop-prix-kvitsoy-1313"}},{"type":"Feature","geometry":{"type":"Point","coordinates":[10.2809,63.2314]},"properties":{"name":"Coop Prix Kvål","address":"Vassfjellvegen 6, 7228 Kvål","source":"https://www.coop.no/butikker/coop-prix/coop-prix-kval-1815"}},{"type":"Feature","geometry":{"type":"Point","coordinates":[18.960074,69.651476]},"properties":{"name":"Coop Prix Kystens Hus","address":"Stortorget 1, 9008 Tromsø","source":"https://www.coop.no/butikker/coop-prix/coop-prix-kystens-hus-2555"}},{"type":"Feature","geometry":{"type":"Point","coordinates":[9.276096,61.8167675]},"properties":{"name":"Coop Prix Lalm","address":"Kolbottvegen 2A, 2682 Lalm","source":"https://www.coop.no/butikker/coop-prix/coop-prix-lalm-2747"}},{"type":"Feature","geometry":{"type":"Point","coordinates":[5.1928616,59.2212288]},"properties":{"name":"Coop Prix Langåker","address":"Vestre Karmøyveg 534, 4274 Stol","source":"https://www.coop.no/butikker/coop-prix/coop-prix-langaker-2947"}},{"type":"Feature","geometry":{"type":"Point","coordinates":[6.2684678,62.6408713]},"properties":{"name":"Coop Prix Lauvstad","address":"Velsvikvegen 5, 6133 Lauvstad","source":"https://www.coop.no/butikker/coop-prix/coop-prix-lauvstad-2758"}},{"type":"Feature","geometry":{"type":"Point","coordinates":[12.9349277,66.0658478]},"properties":{"name":"Coop Prix Leirfjord","address":"Leirfjordveien 220, 8890 Leirfjord","source":"https://www.coop.no/butikker/coop-prix/coop-prix-leirfjord-1618"}},{"type":"Feature","geometry":{"type":"Point","coordinates":[13.6150469,68.1474088]},"properties":{"name":"Coop Prix Leknes","address":"Lekneskroken 3, 8370 Leknes","source":"https://www.coop.no/butikker/coop-prix/coop-prix-leknes-4568"}},{"type":"Feature","geometry":{"type":"Point","coordinates":[9.8275338,63.503916]},"properties":{"name":"Coop Prix Lensvik","address":"Fv710 17-1, 7316 Lensvik","source":"https://www.coop.no/butikker/coop-prix/coop-prix-lensvik-1762"}},{"type":"Feature","geometry":{"type":"Point","coordinates":[10.3006068,63.197811]},"properties":{"name":"Coop Prix Ler","address":"Lersvegen 195, 7234 Ler","source":"https://www.coop.no/butikker/coop-prix/coop-prix-ler-1724"}},{"type":"Feature","geometry":{"type":"Point","coordinates":[11.2855679,63.7476173]},"properties":{"name":"Coop Prix Levangernesset","address":"Staupslia 23, 7603 Levanger","source":"https://www.coop.no/butikker/coop-prix/coop-prix-levangernesset-1740"}},{"type":"Feature","geometry":{"type":"Point","coordinates":[10.635809,59.9212746]},"properties":{"name":"Coop Prix Lilleaker","address":"Lilleakerveien 32, 0284 Oslo","source":"https://www.coop.no/butikker/coop-prix/coop-prix-lilleaker-1101"}},{"type":"Feature","geometry":{"type":"Point","coordinates":[11.049029,59.957034]},"properties":{"name":"Coop Prix Lillestrøm Torv","address":"Teatergata 14, 2000 Lillestrøm","source":"https://www.coop.no/butikker/coop-prix/coop-prix-lillestrom-torv-4669"}},{"type":"Feature","geometry":{"type":"Point","coordinates":[6.2708128,62.6719966]},"properties":{"name":"Coop Prix Longva","address":"Kvernhusvegen 2, 6293 Longva","source":"https://www.coop.no/butikker/coop-prix/coop-prix-longva-2750"}},{"type":"Feature","geometry":{"type":"Point","coordinates":[10.2821519,63.1522052]},"properties":{"name":"Coop Prix Lundamo","address":"Lundamovegen 461, 7232 Lundamo","source":"https://www.coop.no/butikker/coop-prix/coop-prix-lundamo-1623"}},{"type":"Feature","geometry":{"type":"Point","coordinates":[9.870303,63.8849342]},"properties":{"name":"Coop Prix Lysøysund","address":"Roelbakken 2C, 7168 Lysøysund","source":"https://www.coop.no/butikker/coop-prix/coop-prix-lysoysund-1625"}},{"type":"Feature","geometry":{"type":"Point","coordinates":[15.9919,68.4108]},"properties":{"name":"Coop Prix Lødingen","address":"Rådhusvegen 23, 8410 Lødingen","source":"https://www.coop.no/butikker/coop-prix/coop-prix-lodingen-1901"}},{"type":"Feature","geometry":{"type":"Point","coordinates":[10.5622,59.9094]},"properties":{"name":"Coop Prix Løkeberg","address":"Kirkeveien 56, 1363 Høvik","source":"https://www.coop.no/butikker/coop-prix/coop-prix-lokeberg-1133"}},{"type":"Feature","geometry":{"type":"Point","coordinates":[11.2226127,64.0752386]},"properties":{"name":"Coop Prix Malm","address":"Riksvegen, 7790 Malm","source":"https://www.coop.no/butikker/coop-prix/coop-prix-malm-1628"}},{"type":"Feature","geometry":{"type":"Point","coordinates":[20.5476086,69.5413788]},"properties":{"name":"Coop Prix Manndalen","address":"Sentrumsvegen 4, 9144 Samuelsberg","source":"https://www.coop.no/butikker/coop-prix/coop-prix-manndalen-1968"}},{"type":"Feature","geometry":{"type":"Point","coordinates":[5.330169,60.392113]},"properties":{"name":"Coop Prix Marken","address":"Marken 3, 5017 Bergen","source":"https://www.coop.no/butikker/coop-prix/coop-prix-marken-4574"}},{"type":"Feature","geometry":{"type":"Point","coordinates":[10.7834184,59.9599524]},"properties":{"name":"Coop Prix Marsveien","address":"Marsveien 2A, 0493 Oslo","source":"https://www.coop.no/butikker/coop-prix/coop-prix-marsveien-4683"}},{"type":"Feature","geometry":{"type":"Point","coordinates":[27.8499143,71.0405512]},"properties":{"name":"Coop Prix Mehamn","address":"Værveien 38, 9770 Mehamn","source":"https://www.coop.no/butikker/coop-prix/coop-prix-mehamn-1938"}},{"type":"Feature","geometry":{"type":"Point","coordinates":[18.8904625,69.3320188]},"properties":{"name":"Coop Prix Meistervik","address":"Malangsveien, 9055 Mestervik","source":"https://www.coop.no/butikker/coop-prix/coop-prix-meistervik-1960"}},{"type":"Feature","geometry":{"type":"Point","coordinates":[9.7089027,63.0465375]},"properties":{"name":"Coop Prix Meldal","address":"Kvamsveien 603, 7336 Meldal","source":"https://www.coop.no/butikker/coop-prix/coop-prix-meldal-1631"}},{"type":"Feature","geometry":{"type":"Point","coordinates":[5.30427,60.3756]},"properties":{"name":"Coop Prix Melkeplassen","address":"Arne Abrahamsens vei 1, 5161 Laksevåg","source":"https://www.coop.no/butikker/coop-prix/coop-prix-melkeplassen-1465"}},{"type":"Feature","geometry":{"type":"Point","coordinates":[6.6734739,62.6740528]},"properties":{"name":"Coop Prix Midsund","address":"Utsidevegen 57, 6475 Midsund","source":"https://www.coop.no/butikker/coop-prix/coop-prix-midsund-1489"}},{"type":"Feature","geometry":{"type":"Point","coordinates":[5.7161676,58.9699138]},"properties":{"name":"Coop Prix Misjonsveien","address":"Misjonsveien 2, 4024 Stavanger","source":"https://www.coop.no/butikker/coop-prix/coop-prix-misjonsveien-1297"}},{"type":"Feature","geometry":{"type":"Point","coordinates":[14.1363,66.3099]},"properties":{"name":"Coop Prix Mo I Rana","address":"Fridtjof Nansens gate 15, 8622 Mo i Rana","source":"https://www.coop.no/butikker/coop-prix/coop-prix-mo-i-rana-1664"}},{"type":"Feature","geometry":{"type":"Point","coordinates":[14.3693,67.27929]},"properties":{"name":"Coop Prix Moloveien","address":"Moloveien 2, 8003 Bodø","source":"https://www.coop.no/butikker/coop-prix/coop-prix-moloveien-2517"}},{"type":"Feature","geometry":{"type":"Point","coordinates":[7.9594602,58.2595297]},"properties":{"name":"Coop Prix Moseidmoen","address":"Drivenesvegen 31, 4700 Vennesla","source":"https://www.coop.no/butikker/coop-prix/coop-prix-moseidmoen-2796"}},{"type":"Feature","geometry":{"type":"Point","coordinates":[18.9500514,69.659586]},"properties":{"name":"Coop Prix Myreng Tromsø","address":"Myrengvegen 65, 9011 Tromsø","source":"https://www.coop.no/butikker/coop-prix/coop-prix-myreng-tromso-2764"}},{"type":"Feature","geometry":{"type":"Point","coordinates":[7.443381,62.5338401]},"properties":{"name":"Coop Prix Måndalen","address":"Sørsidevegen 1729, 6386 Måndalen","source":"https://www.coop.no/butikker/coop-prix/coop-prix-mandalen-1501"}},{"type":"Feature","geometry":{"type":"Point","coordinates":[11.2225209,64.2233757]},"properties":{"name":"Coop Prix Namdalseid","address":"Namsosvegen 2899, 7750 Namdalseid","source":"https://www.coop.no/butikker/coop-prix/coop-prix-namdalseid-1634"}},{"type":"Feature","geometry":{"type":"Point","coordinates":[11.5204,64.4702]},"properties":{"name":"Coop Prix Namsos","address":"Namdalsvegen 13, 7800 Namsos","source":"https://www.coop.no/butikker/coop-prix/coop-prix-namsos-1679"}},{"type":"Feature","geometry":{"type":"Point","coordinates":[13.1591467,64.9292956]},"properties":{"name":"Coop Prix Namsskogan","address":"R. C. Hansens Vei 1, 7890 Namsskogan","source":"https://www.coop.no/butikker/coop-prix/coop-prix-namsskogan-2781"}},{"type":"Feature","geometry":{"type":"Point","coordinates":[9.4375082,60.1351702]},"properties":{"name":"Coop Prix Nedre Eggedal","address":"Eggedalsveien 86, 3358 Nedre Eggedal","source":"https://www.coop.no/butikker/coop-prix/coop-prix-nedre-eggedal-1149"}},{"type":"Feature","geometry":{"type":"Point","coordinates":[13.0231,66.1997]},"properties":{"name":"Coop Prix Nesna","address":"Idrettsvegen 13, 8700 Nesna","source":"https://www.coop.no/butikker/coop-prix/coop-prix-nesna-1639"}},{"type":"Feature","geometry":{"type":"Point","coordinates":[6.14595,60.3723]},"properties":{"name":"Coop Prix Norheimsund","address":"Grova 16, 5600 Norheimsund","source":"https://www.coop.no/butikker/coop-prix/coop-prix-norheimsund-1445"}},{"type":"Feature","geometry":{"type":"Point","coordinates":[10.5265768,63.4216035]},"properties":{"name":"Coop Prix Olderdalen","address":"Sverre Svendsens veg 8, 7056 Ranheim","source":"https://www.coop.no/butikker/coop-prix/coop-prix-olderdalen-1808"}},{"type":"Feature","geometry":{"type":"Point","coordinates":[6.0555365,58.8335458]},"properties":{"name":"Coop Prix Oltedal","address":"Bygdaveien 186, 4333 Oltedal","source":"https://www.coop.no/butikker/coop-prix/coop-prix-oltedal-1253"}},{"type":"Feature","geometry":{"type":"Point","coordinates":[10.5124023,64.2962846]},"properties":{"name":"Coop Prix Osen","address":"Steinsdalsveien 29, 7740 Steinsdalen","source":"https://www.coop.no/butikker/coop-prix/coop-prix-osen-2767"}},{"type":"Feature","geometry":{"type":"Point","coordinates":[10.4469403,63.4331077]},"properties":{"name":"Coop Prix Persaunet","address":"Tessems veg 2, 7045 Trondheim","source":"https://www.coop.no/butikker/coop-prix/coop-prix-persaunet-4705"}},{"type":"Feature","geometry":{"type":"Point","coordinates":[10.753893,59.911817]},"properties":{"name":"Coop Prix Postgirobygget","address":"Biskop Gunnerus gate 14, 0155 Oslo","source":"https://www.coop.no/butikker/coop-prix/coop-prix-postgirobygget-4306"}},{"type":"Feature","geometry":{"type":"Point","coordinates":[5.3128637,60.4659234]},"properties":{"name":"Coop Prix Prestestien","address":"Myrdalskogen 2A, 5118 Ulset","source":"https://www.coop.no/butikker/coop-prix/coop-prix-prestestien-1459"}},{"type":"Feature","geometry":{"type":"Point","coordinates":[13.083905,67.9388509]},"properties":{"name":"Coop Prix Reine","address":"Moskenesveien 394, 8390 Reine","source":"https://www.coop.no/butikker/coop-prix/coop-prix-reine-1891"}},{"type":"Feature","geometry":{"type":"Point","coordinates":[9.234928,58.7205]},"properties":{"name":"Coop Prix Risør","address":"Strandgata 3, 4950 Risør","source":"https://www.coop.no/butikker/coop-prix/coop-prix-risor-4512"}},{"type":"Feature","geometry":{"type":"Point","coordinates":[5.2862367,59.4081603]},"properties":{"name":"Coop Prix Rogalandsgate","address":"Rogalandgata 52, 5531 Haugesund","source":"https://www.coop.no/butikker/coop-prix/coop-prix-rogalandsgate-1234"}},{"type":"Feature","geometry":{"type":"Point","coordinates":[10.372,63.3995]},"properties":{"name":"Coop Prix Rognheim","address":"Bøckmans veg 76, 7022 Trondheim","source":"https://www.coop.no/butikker/coop-prix/coop-prix-rognheim-1803"}},{"type":"Feature","geometry":{"type":"Point","coordinates":[6.0043593,59.9877571]},"properties":{"name":"Coop Prix Rosendal","address":"Skålagato 2, 5470 Rosendal","source":"https://www.coop.no/butikker/coop-prix/coop-prix-rosendal-4346"}},{"type":"Feature","geometry":{"type":"Point","coordinates":[15.3147916,66.9810586]},"properties":{"name":"Coop Prix Røkland","address":"E6, 8255 Røkland","source":"https://www.coop.no/butikker/coop-prix/coop-prix-rokland-2421"}},{"type":"Feature","geometry":{"type":"Point","coordinates":[6.8193696,59.8323284]},"properties":{"name":"Coop Prix Røldal","address":"Kyrkjevegen 27, 5760 Røldal","source":"https://www.coop.no/butikker/coop-prix/coop-prix-roldal-2741"}},{"type":"Feature","geometry":{"type":"Point","coordinates":[14.6024,67.2283]},"properties":{"name":"Coop Prix Saltstraumen","address":"Straumøyveien 5, 8056 Saltstraumen","source":"https://www.coop.no/butikker/coop-prix/coop-prix-saltstraumen-1879"}},{"type":"Feature","geometry":{"type":"Point","coordinates":[5.8683383,59.5417838]},"properties":{"name":"Coop Prix Sandeid","address":"Sandeidsjøen 8, 5585 Sandeid","source":"https://www.coop.no/butikker/coop-prix/coop-prix-sandeid-1276"}},{"type":"Feature","geometry":{"type":"Point","coordinates":[11.3341063,63.9583949]},"properties":{"name":"Coop Prix Sandvollan","address":"Nessetvegen 2, 7670 Inderøy","source":"https://www.coop.no/butikker/coop-prix/coop-prix-sandvollan-1702"}},{"type":"Feature","geometry":{"type":"Point","coordinates":[5.3455024,62.0450477]},"properties":{"name":"Coop Prix Selje","address":"Selje, 6740 Selje","source":"https://www.coop.no/butikker/coop-prix/coop-prix-selje-1566"}},{"type":"Feature","geometry":{"type":"Point","coordinates":[10.654471,62.942407]},"properties":{"name":"Coop Prix Singsås","address":"Fv30, 7387 Singsås","source":"https://www.coop.no/butikker/coop-prix/coop-prix-singsas-2751"}},{"type":"Feature","geometry":{"type":"Point","coordinates":[6.6607972,58.4162264]},"properties":{"name":"Coop Prix Sira","address":"Prestevegen 3, 4438 Sira","source":"https://www.coop.no/butikker/coop-prix/coop-prix-sira-1262"}},{"type":"Feature","geometry":{"type":"Point","coordinates":[10.3951555,63.3687592]},"properties":{"name":"Coop Prix Sjetnemarka","address":"Parallellen 23, 7081 Sjetnemarka","source":"https://www.coop.no/butikker/coop-prix/coop-prix-sjetnemarka-1816"}},{"type":"Feature","geometry":{"type":"Point","coordinates":[6.8122789,62.4827662]},"properties":{"name":"Coop Prix Sjøholt","address":"Sjøholtvegen 9, 6240 Ørskog","source":"https://www.coop.no/butikker/coop-prix/coop-prix-sjoholt-1491"}},{"type":"Feature","geometry":{"type":"Point","coordinates":[10.053857,63.2510451]},"properties":{"name":"Coop Prix Skaun","address":"Skaunavegen 920, 7357 Skaun","source":"https://www.coop.no/butikker/coop-prix/coop-prix-skaun-2795"}},{"type":"Feature","geometry":{"type":"Point","coordinates":[6.4817293,61.5730961]},"properties":{"name":"Coop Prix Skei","address":"Vikavegen 9, 6843 Skei","source":"https://www.coop.no/butikker/coop-prix/coop-prix-skei-2812"}},{"type":"Feature","geometry":{"type":"Point","coordinates":[5.6208247,59.4287726]},"properties":{"name":"Coop Prix Skjoldastraumen","address":"Skjoldastraumsvegen 1131, 5567 Skjoldastraumen","source":"https://www.coop.no/butikker/coop-prix/coop-prix-skjoldastraumen-1241"}},{"type":"Feature","geometry":{"type":"Point","coordinates":[9.525317,59.2150998]},"properties":{"name":"Coop Prix Skotfoss","address":"Skotfossveien 242, 3720 Skotfoss","source":"https://www.coop.no/butikker/coop-prix/coop-prix-skotfoss-1203"}},{"type":"Feature","geometry":{"type":"Point","coordinates":[10.9217,60.0095]},"properties":{"name":"Coop Prix Slattum","address":"Slattum Terasse 2, 1480 Slattum","source":"https://www.coop.no/butikker/coop-prix/coop-prix-slattum-1111"}},{"type":"Feature","geometry":{"type":"Point","coordinates":[10.3881,60.8804]},"properties":{"name":"Coop Prix Snertingdal","address":"Snertingdalsvegen 1722, 2838 Snertingdalen","source":"https://www.coop.no/butikker/coop-prix/coop-prix-snertingdal-2445"}},{"type":"Feature","geometry":{"type":"Point","coordinates":[12.38403,64.2464759]},"properties":{"name":"Coop Prix Snåsa","address":"Øverbygdvegen 8, 7760 Snåsa","source":"https://www.coop.no/butikker/coop-prix/coop-prix-snasa-1692"}},{"type":"Feature","geometry":{"type":"Point","coordinates":[10.226688,59.132628]},"properties":{"name":"Coop Prix Sperretorvet","address":"Storgata 23, 3210 Sandefjord","source":"https://www.coop.no/butikker/coop-prix/coop-prix-sperretorvet-4700"}},{"type":"Feature","geometry":{"type":"Point","coordinates":[8.0138172,58.1536709]},"properties":{"name":"Coop Prix St. Olavsvei","address":"Sankt Olavs vei 15, 4632 Kristiansand","source":"https://www.coop.no/butikker/coop-prix/coop-prix-st-olavsvei-1342"}},{"type":"Feature","geometry":{"type":"Point","coordinates":[10.0189308,63.5085588]},"properties":{"name":"Coop Prix Stadsbygd","address":"Valsåmyra 4, 7105 Stadsbygd","source":"https://www.coop.no/butikker/coop-prix/coop-prix-stadsbygd-1833"}},{"type":"Feature","geometry":{"type":"Point","coordinates":[13.84562,68.1221]},"properties":{"name":"Coop Prix Stamsund","address":"J. M. Johansens Vei 19, 8340 Stamsund","source":"https://www.coop.no/butikker/coop-prix/coop-prix-stamsund-2571"}},{"type":"Feature","geometry":{"type":"Point","coordinates":[15.015465,67.775513]},"properties":{"name":"Coop Prix Steigen","address":"Myklebostadveien 2, 8283 Leinesfjord","source":"https://www.coop.no/butikker/coop-prix/coop-prix-steigen-1847"}},{"type":"Feature","geometry":{"type":"Point","coordinates":[10.9162,63.4667]},"properties":{"name":"Coop Prix Stjørdal","address":"Værnesgata 7 A, 7500 Stjørdal","source":"https://www.coop.no/butikker/coop-prix/coop-prix-stjordal-1710"}},{"type":"Feature","geometry":{"type":"Point","coordinates":[14.9119,68.5685]},"properties":{"name":"Coop Prix Stokmarknes","address":"Markedsgata 3, 8450 Stokmarknes","source":"https://www.coop.no/butikker/coop-prix/coop-prix-stokmarknes-2426"}},{"type":"Feature","geometry":{"type":"Point","coordinates":[6.98593,62.3818]},"properties":{"name":"Coop Prix Stordal","address":"Strandagata 35, 6250 Stordal","source":"https://www.coop.no/butikker/coop-prix/coop-prix-stordal-1508"}},{"type":"Feature","geometry":{"type":"Point","coordinates":[14.5283915,66.4044607]},"properties":{"name":"Coop Prix Storforshei","address":"Malmgata 27, 8630 Storforshei","source":"https://www.coop.no/butikker/coop-prix/coop-prix-storforshei-1670"}},{"type":"Feature","geometry":{"type":"Point","coordinates":[14.38668,67.28483]},"properties":{"name":"Coop Prix Storgata","address":"Storgaten 48, 8006 Bodø","source":"https://www.coop.no/butikker/coop-prix/coop-prix-storgata-1866"}},{"type":"Feature","geometry":{"type":"Point","coordinates":[5.7533647,58.9642819]},"properties":{"name":"Coop Prix Storhaug","address":"Asbjørn Klosters gate 39, 4015 Stavanger","source":"https://www.coop.no/butikker/coop-prix/coop-prix-storhaug-1300"}},{"type":"Feature","geometry":{"type":"Point","coordinates":[6.0115655,60.2608455]},"properties":{"name":"Coop Prix Strandebarm","address":"Tangeråshagen 5, 5630 Strandebarm","source":"https://www.coop.no/butikker/coop-prix/coop-prix-strandebarm-2739"}},{"type":"Feature","geometry":{"type":"Point","coordinates":[23.6862,70.6631]},"properties":{"name":"Coop Prix Strandgata Hammerfest","address":"Strandgata 8-14, 9600 Hammerfest","source":"https://www.coop.no/butikker/coop-prix/coop-prix-strandgata-hammerfest-1920"}},{"type":"Feature","geometry":{"type":"Point","coordinates":[18.9427127,69.6417658]},"properties":{"name":"Coop Prix Strandkanten. Nord","address":"Hjalmar Johansens gate 27, 9007 Tromsø","source":"https://www.coop.no/butikker/coop-prix/coop-prix-strandkanten-nord-2596"}},{"type":"Feature","geometry":{"type":"Point","coordinates":[14.4739,68.6884]},"properties":{"name":"Coop Prix Straume","address":"Veaveien, 8475 Straumsjøen","source":"https://www.coop.no/butikker/coop-prix/coop-prix-straume-1902"}},{"type":"Feature","geometry":{"type":"Point","coordinates":[15.5930021,67.3464965]},"properties":{"name":"Coop Prix Straumen","address":"Sentrum 2, 8226 Straumen","source":"https://www.coop.no/butikker/coop-prix/coop-prix-straumen-1840"}},{"type":"Feature","geometry":{"type":"Point","coordinates":[6.5153018,59.4915989]},"properties":{"name":"Coop Prix Suldal","address":"Suldalsvegen 1621, 4240 Suldalsosen","source":"https://www.coop.no/butikker/coop-prix/coop-prix-suldal-2797"}},{"type":"Feature","geometry":{"type":"Point","coordinates":[16.070945,67.1338931]},"properties":{"name":"Coop Prix Sulitjelma","address":"Sandnes, 8230 Sulitjelma","source":"https://www.coop.no/butikker/coop-prix/coop-prix-sulitjelma-2623"}},{"type":"Feature","geometry":{"type":"Point","coordinates":[5.2907344,61.7686941]},"properties":{"name":"Coop Prix Svelgen","address":"Granden, 6723 Svelgen","source":"https://www.coop.no/butikker/coop-prix/coop-prix-svelgen-1384"}},{"type":"Feature","geometry":{"type":"Point","coordinates":[10.3526998,63.4161442]},"properties":{"name":"Coop Prix Sverresborg","address":"Gamle Oslovei 8, 7020 Trondheim","source":"https://www.coop.no/butikker/coop-prix/coop-prix-sverresborg-1804"}},{"type":"Feature","geometry":{"type":"Point","coordinates":[5.7388769,62.0892483]},"properties":{"name":"Coop Prix Syvde","address":"Syvdefjordvegen, 6140 Syvde","source":"https://www.coop.no/butikker/coop-prix/coop-prix-syvde-2759"}},{"type":"Feature","geometry":{"type":"Point","coordinates":[9.939824,61.5557212]},"properties":{"name":"Coop Prix Sør-Fron","address":"Meierivegen 7, 2647 Sør-fron","source":"https://www.coop.no/butikker/coop-prix/coop-prix-sor-fron-2117"}},{"type":"Feature","geometry":{"type":"Point","coordinates":[10.7552321,59.9020239]},"properties":{"name":"Coop Prix Sørenga","address":"Sørengakaia 82, 0194 Oslo","source":"https://www.coop.no/butikker/coop-prix/coop-prix-sorenga-2515"}},{"type":"Feature","geometry":{"type":"Point","coordinates":[6.2786276,62.548497]},"properties":{"name":"Coop Prix Søvik","address":"Hamnsundvegen 226-228, 6280 Søvik","source":"https://www.coop.no/butikker/coop-prix/coop-prix-sovik-1518"}},{"type":"Feature","geometry":{"type":"Point","coordinates":[22.9511906,70.0410015]},"properties":{"name":"Coop Prix Talvik","address":"Handelstranda 2, 9540 Talvik","source":"https://www.coop.no/butikker/coop-prix/coop-prix-talvik-2734"}},{"type":"Feature","geometry":{"type":"Point","coordinates":[17.8079426,68.7480956]},"properties":{"name":"Coop Prix Tennevoll","address":"Bakkan 1, 9357 Tennevoll","source":"https://www.coop.no/butikker/coop-prix/coop-prix-tennevoll-2595"}},{"type":"Feature","geometry":{"type":"Point","coordinates":[12.3756963,65.0890177]},"properties":{"name":"Coop Prix Terråk","address":"Sørfjordveien 2B, 7980 Terråk","source":"https://www.coop.no/butikker/coop-prix/coop-prix-terrak-2843"}},{"type":"Feature","geometry":{"type":"Point","coordinates":[10.1515217,59.0628241]},"properties":{"name":"Coop Prix Tjølling","address":"Stasjonsveien 1, 3280 Tjodalyng","source":"https://www.coop.no/butikker/coop-prix/coop-prix-tjolling-4778"}},{"type":"Feature","geometry":{"type":"Point","coordinates":[10.9984755,62.4095844]},"properties":{"name":"Coop Prix Tolga","address":"Brugata 40, 2540 Tolga","source":"https://www.coop.no/butikker/coop-prix/coop-prix-tolga-1648"}},{"type":"Feature","geometry":{"type":"Point","coordinates":[7.0297829,62.8426386]},"properties":{"name":"Coop Prix Tornes","address":"Tornesvegen 589, 6443 Tornes i Romsdal","source":"https://www.coop.no/butikker/coop-prix/coop-prix-tornes-2805"}},{"type":"Feature","geometry":{"type":"Point","coordinates":[11.0489139,59.1848031]},"properties":{"name":"Coop Prix Torsnes","address":"Torsnesveien 207, 1634 Gamle Fredrikstad","source":"https://www.coop.no/butikker/coop-prix/coop-prix-torsnes-1061"}},{"type":"Feature","geometry":{"type":"Point","coordinates":[10.672582,60.801525]},"properties":{"name":"Coop Prix Tranberg","address":"Prost Bloms gate 28, 2819 Gjøvik","source":"https://www.coop.no/butikker/coop-prix/coop-prix-tranberg-4952"}},{"type":"Feature","geometry":{"type":"Point","coordinates":[10.3002349,61.3145742]},"properties":{"name":"Coop Prix Tretten","address":"Kongsvegen 1566, 2635 Tretten","source":"https://www.coop.no/butikker/coop-prix/coop-prix-tretten-2046"}},{"type":"Feature","geometry":{"type":"Point","coordinates":[8.5232,59.019]},"properties":{"name":"Coop Prix Treungen","address":"Treungvegen 378-380, 3855 Treungen","source":"https://www.coop.no/butikker/coop-prix/coop-prix-treungen-1335"}},{"type":"Feature","geometry":{"type":"Point","coordinates":[13.3873278,65.5371958]},"properties":{"name":"Coop Prix Trofors","address":"Troforsvegen 14, 8682 Trofors","source":"https://www.coop.no/butikker/coop-prix/coop-prix-trofors-1589"}},{"type":"Feature","geometry":{"type":"Point","coordinates":[8.042593,63.206692]},"properties":{"name":"Coop Prix Tustna","address":"Tømmervågvegen 3281, 6590 Tustna","source":"https://www.coop.no/butikker/coop-prix/coop-prix-tustna-1488"}},{"type":"Feature","geometry":{"type":"Point","coordinates":[8.1064938,58.2168298]},"properties":{"name":"Coop Prix Tveit","address":"Topdalsveien 167, 4658 Tveit","source":"https://www.coop.no/butikker/coop-prix/coop-prix-tveit-1349"}},{"type":"Feature","geometry":{"type":"Point","coordinates":[11.6578,63.0446]},"properties":{"name":"Coop Prix Tydal","address":"Tydalsvegen, 7590 Tydal","source":"https://www.coop.no/butikker/coop-prix/coop-prix-tydal-1733"}},{"type":"Feature","geometry":{"type":"Point","coordinates":[10.75021127,59.9499967]},"properties":{"name":"Coop Prix Tåsen","address":"Nils Lauritssøns vei 57, 0870 Oslo","source":"https://www.coop.no/butikker/coop-prix/coop-prix-tasen-4238"}},{"type":"Feature","geometry":{"type":"Point","coordinates":[10.7409115,59.9220315]},"properties":{"name":"Coop Prix Ullevålsveien","address":"Pilestredet Park 12 A, 0176 Oslo","source":"https://www.coop.no/butikker/coop-prix/coop-prix-ullevalsveien-4676"}},{"type":"Feature","geometry":{"type":"Point","coordinates":[6.91545,60.56854]},"properties":{"name":"Coop Prix Ulvik","address":"Skeievegen 15, 5730 Ulvik","source":"https://www.coop.no/butikker/coop-prix/coop-prix-ulvik-1405"}},{"type":"Feature","geometry":{"type":"Point","coordinates":[5.7731431,58.6822472]},"properties":{"name":"Coop Prix Undheim Handelslag","address":"Kjelvevegen 1, 4342 Undheim","source":"https://www.coop.no/butikker/coop-prix/coop-prix-undheim-handelslag-1285"}},{"type":"Feature","geometry":{"type":"Point","coordinates":[5.7433,60.4774]},"properties":{"name":"Coop Prix Vaksdal","address":"Botnavegen 10, 5725 Vaksdal","source":"https://www.coop.no/butikker/coop-prix/coop-prix-vaksdal-1410"}},{"type":"Feature","geometry":{"type":"Point","coordinates":[7.534574,59.2120279]},"properties":{"name":"Coop Prix Valle","address":"Nordibøvegen 151, 4747 Valle","source":"https://www.coop.no/butikker/coop-prix/coop-prix-valle-1328"}},{"type":"Feature","geometry":{"type":"Point","coordinates":[15.1842977,67.2999716]},"properties":{"name":"Coop Prix Valnesfjord","address":"Fv530, 8215 Valnesfjord","source":"https://www.coop.no/butikker/coop-prix/coop-prix-valnesfjord-1843"}},{"type":"Feature","geometry":{"type":"Point","coordinates":[10.2223968,63.5534534]},"properties":{"name":"Coop Prix Vanvikan","address":"Havnegata, 7125 Vanvikan","source":"https://www.coop.no/butikker/coop-prix/coop-prix-vanvikan-1620"}},{"type":"Feature","geometry":{"type":"Point","coordinates":[28.5535109,70.1731992]},"properties":{"name":"Coop Prix Varangerbotn","address":"Dalveloudda, 9840 Varangerbotn","source":"https://www.coop.no/butikker/coop-prix/coop-prix-varangerbotn-2745"}},{"type":"Feature","geometry":{"type":"Point","coordinates":[5.22619,59.293]},"properties":{"name":"Coop Prix Vedavågen","address":"Austreveavei 217, 4276 Vedavågen","source":"https://www.coop.no/butikker/coop-prix/coop-prix-vedavagen-2128"}},{"type":"Feature","geometry":{"type":"Point","coordinates":[11.9601578,65.6762855]},"properties":{"name":"Coop Prix Vega","address":"Åsveien 2, 8982 Vega","source":"https://www.coop.no/butikker/coop-prix/coop-prix-vega-1737"}},{"type":"Feature","geometry":{"type":"Point","coordinates":[12.5487731,65.4031478]},"properties":{"name":"Coop Prix Velfjord","address":"Tosenveien, 8960 Hommelstø","source":"https://www.coop.no/butikker/coop-prix/coop-prix-velfjord-1578"}},{"type":"Feature","geometry":{"type":"Point","coordinates":[10.1445,61.2018]},"properties":{"name":"Coop Prix Vestre Gausdal","address":"Jordmorveien 11, 2653 Vestre Gausdal","source":"https://www.coop.no/butikker/coop-prix/coop-prix-vestre-gausdal-2476"}},{"type":"Feature","geometry":{"type":"Point","coordinates":[8.9812884,61.0876509]},"properties":{"name":"Coop Prix Vestre Slidre","address":"Slidrevegen 14, 2966 Slidre","source":"https://www.coop.no/butikker/coop-prix/coop-prix-vestre-slidre-2816"}},{"type":"Feature","geometry":{"type":"Point","coordinates":[10.743534,59.915165]},"properties":{"name":"Coop Prix Vg-Huset","address":"Akersgata 55, 0180 Oslo","source":"https://www.coop.no/butikker/coop-prix/coop-prix-vg-huset-4216"}},{"type":"Feature","geometry":{"type":"Point","coordinates":[12.1668,65.31199]},"properties":{"name":"Coop Prix Vik I Helgeland","address":"Sentrumsveien 6, 8920 Sømna","source":"https://www.coop.no/butikker/coop-prix/coop-prix-vik-i-helgeland-1727"}},{"type":"Feature","geometry":{"type":"Point","coordinates":[5.9040861,59.4978916]},"properties":{"name":"Coop Prix Vikedal","address":"Kyrkjehølsvegen 5, 5583 Vikedal","source":"https://www.coop.no/butikker/coop-prix/coop-prix-vikedal-1245"}},{"type":"Feature","geometry":{"type":"Point","coordinates":[6.426706,60.629226]},"properties":{"name":"Coop Prix Voss","address":"Uttrågata 36, 5700 Vossevangen","source":"https://www.coop.no/butikker/coop-prix/coop-prix-voss-4793"}},{"type":"Feature","geometry":{"type":"Point","coordinates":[11.7301641,63.7765809]},"properties":{"name":"Coop Prix Vuku","address":"Bredingsberg 4, 7660 Vuku","source":"https://www.coop.no/butikker/coop-prix/coop-prix-vuku-1741"}},{"type":"Feature","geometry":{"type":"Point","coordinates":[8.308272,63.1190322]},"properties":{"name":"Coop Prix Vågland","address":"Glåmsmyrvegen 11, 6683 Vågland","source":"https://www.coop.no/butikker/coop-prix/coop-prix-vagland-1788"}},{"type":"Feature","geometry":{"type":"Point","coordinates":[5.73021,58.9628]},"properties":{"name":"Coop Prix Våland","address":"Storgata 30, 4010 Stavanger","source":"https://www.coop.no/butikker/coop-prix/coop-prix-valand-1303"}},{"type":"Feature","geometry":{"type":"Point","coordinates":[12.6987058,67.6658509]},"properties":{"name":"Coop Prix Værøy","address":"Sørland, 8063 Værøy","source":"https://www.coop.no/butikker/coop-prix/coop-prix-vaeroy-1874"}},{"type":"Feature","geometry":{"type":"Point","coordinates":[10.7415661,59.9240333]},"properties":{"name":"Coop Prix Waldemar Thranesgate","address":"Waldemar Thranes gate 5, 0171 Oslo","source":"https://www.coop.no/butikker/coop-prix/coop-prix-waldemar-thranesgate-4675"}},{"type":"Feature","geometry":{"type":"Point","coordinates":[5.4373284,60.4600883]},"properties":{"name":"Coop Prix Ytre Arna","address":"Peter Jebsens veg 19, 5265 Ytre Arna","source":"https://www.coop.no/butikker/coop-prix/coop-prix-ytre-arna-1461"}},{"type":"Feature","geometry":{"type":"Point","coordinates":[9.7421742,62.9849169]},"properties":{"name":"Coop Prix Å","address":"Stensveien 1, 7335 Jerpstad","source":"https://www.coop.no/butikker/coop-prix/coop-prix-a-1757"}},{"type":"Feature","geometry":{"type":"Point","coordinates":[9.53811,59.195009]},"properties":{"name":"Coop Prix Åfoss","address":"Elsetvegen 120, 3731 Skien","source":"https://www.coop.no/butikker/coop-prix/coop-prix-afoss-1213"}},{"type":"Feature","geometry":{"type":"Point","coordinates":[14.074,66.2884]},"properties":{"name":"Coop Prix Åga","address":"Nygata 41, 8618 Mo i Rana","source":"https://www.coop.no/butikker/coop-prix/coop-prix-aga-1666"}},{"type":"Feature","geometry":{"type":"Point","coordinates":[8.4829722,58.7657698]},"properties":{"name":"Coop Prix Åmli","address":"Fossevegen 8, 4865 Åmli","source":"https://www.coop.no/butikker/coop-prix/coop-prix-amli-2129"}},{"type":"Feature","geometry":{"type":"Point","coordinates":[6.1804105,59.1511153]},"properties":{"name":"Coop Prix Årdal","address":"Årdalstunet 4, 4137 Årdal","source":"https://www.coop.no/butikker/coop-prix/coop-prix-ardal-1315"}},{"type":"Feature","geometry":{"type":"Point","coordinates":[7.2812094,62.754699]},"properties":{"name":"Coop Prix Årølia","address":"Årømyran 31e, 6421 Molde","source":"https://www.coop.no/butikker/coop-prix/coop-prix-arolia-2808"}},{"type":"Feature","geometry":{"type":"Point","coordinates":[7.40826,58.6109]},"properties":{"name":"Coop Prix Åseral","address":"Gardsvegen 8, 4540 Åseral","source":"https://www.coop.no/butikker/coop-prix/coop-prix-aseral-3326"}},{"type":"Feature","geometry":{"type":"Point","coordinates":[22.3493,70.2405]},"properties":{"name":"Coop Prix Øksfjord","address":"Strandveien 12, 9550 Øksfjord","source":"https://www.coop.no/butikker/coop-prix/coop-prix-oksfjord-1969"}},{"type":"Feature","geometry":{"type":"Point","coordinates":[10.841779,59.8924692]},"properties":{"name":"Coop Prix Østmarkveien","address":"Østmarkveien 2, 0687 Oslo","source":"https://www.coop.no/butikker/coop-prix/coop-prix-ostmarkveien-4712"}},{"type":"Feature","geometry":{"type":"Point","coordinates":[10.3895671,63.423003]},"properties":{"name":"Coop Prix Øya","address":"Klostergata 48, 7030 Trondheim","source":"https://www.coop.no/butikker/coop-prix/coop-prix-oya-1802"}}]}